Timestamp,roll,pitch,heading,rollRate,pitchRate,yawRate,groundSpeed,airSpeed,climbRate,altitudeRelative,altitudeAMSL,flightDistance,flightTime,distanceToHome,missionItemIndex,headingToNextWP,headingToHome,distanceToGCS,throttlePct,hobbs,battery0.id,battery0.batteryFunction,battery0.batteryType,battery0.voltage,battery0.current,battery0.mahConsumed,battery0.temperature,battery0.percentRemaining,battery0.timeRemaining,battery0.timeRemainingStr,battery0.chargeState,battery0.instantPower,clock.currentTime,clock.currentDate,distanceSensor.rotationNone,distanceSensor.rotationYaw45,distanceSensor.rotationYaw90,distanceSensor.rotationYaw135,distanceSensor.rotationYaw180,distanceSensor.rotationYaw225,distanceSensor.rotationYaw270,distanceSensor.rotationYaw315,distanceSensor.rotationPitch90,distanceSensor.rotationPitch270,distanceSensor.minDistance,distanceSensor.maxDistance,escStatus.index,escStatus.rpm1,escStatus.rpm2,escStatus.rpm3,escStatus.rpm4,escStatus.current1,escStatus.current2,escStatus.current3,escStatus.current4,escStatus.voltage1,escStatus.voltage2,escStatus.voltage3,escStatus.voltage4,estimatorStatus.goodAttitudeEsimate,estimatorStatus.goodHorizVelEstimate,estimatorStatus.goodVertVelEstimate,estimatorStatus.goodHorizPosRelEstimate,estimatorStatus.goodHorizPosAbsEstimate,estimatorStatus.goodVertPosAbsEstimate,estimatorStatus.goodVertPosAGLEstimate,estimatorStatus.goodConstPosModeEstimate,estimatorStatus.goodPredHorizPosRelEstimate,estimatorStatus.goodPredHorizPosAbsEstimate,estimatorStatus.gpsGlitch,estimatorStatus.accelError,estimatorStatus.velRatio,estimatorStatus.horizPosRatio,estimatorStatus.vertPosRatio,estimatorStatus.magRatio,estimatorStatus.haglRatio,estimatorStatus.tasRatio,estimatorStatus.horizPosAccuracy,estimatorStatus.vertPosAccuracy,gps.lat,gps.lon,gps.mgrs,gps.hdop,gps.vdop,gps.courseOverGround,gps.lock,gps.count,setpoint.roll,setpoint.pitch,setpoint.yaw,setpoint.rollRate,setpoint.pitchRate,setpoint.yawRate,temperature.temperature1,temperature.temperature2,temperature.temperature3,terrain.blocksPending,terrain.blocksLoaded,vibration.xAxis,vibration.yAxis,vibration.zAxis,vibration.clipCount1,vibration.clipCount2,vibration.clipCount3,wind.direction,wind.speed,wind.verticalSpeed
2021-10-29 12:22:22.960,0.4,0.0,37,0.0,0.0,0.0,0.1,0.0,0.3,0.2,23.0,0.0,00:00:00,0.0,0,--.--,--.--,--.--,0,0000:00:00,0,0,0,49.86,0.29,43,--.--,99,--.--,--:--:--,0,14.46,12:22:22,29/10/21,--.--,--.--,--.--,--.--,--.--,--.--,--.--,--.--,--.--,--.--,--.--,--.--,0,0.000,0.000,0.000,0.000,0.000,0.000,0.000,0.000,0.000,0.000,0.000,0.000,false,false,false,false,false,false,false,false,false,false,false,false,--.--,--.--,--.--,--.--,--.--,--.--,--.--,--.--,11.2552081,75.8292455,43PEN 90514 44326,0.6,1.0,0.0,4,17,--.--,--.--,--.--,--.--,--.--,--.--,47.32,--.--,--.--,112,0,0.0,0.0,0.0,0,0,0,--.--,--.--,--.--
2021-10-29 12:22:23.960,0.4,0.0,37,0.0,0.0,0.0,0.1,0.0,0.2,0.3,23.1,0.0,00:00:01,0.1,0,--.--,--.--,--.--,0,0000:00:00,0,0,0,49.83,0.23,43,--.--,99,--.--,--:--:--,0,11.46,12:22:23,29/10/21,--.--,--.--,--.--,--.--,--.--,--.--,--.--,--.--,--.--,--.--,--.--,--.--,0,0.000,0.000,0.000,0.000,0.000,0.000,0.000,0.000,0.000,0.000,0.000,0.000,false,false,false,false,false,false,false,false,false,false,false,false,--.--,--.--,--.--,--.--,--.--,--.--,--.--,--.--,11.2552074,75.8292449,43PEN 90514 44325,0.6,1.0,0.0,4,18,--.--,--.--,--.--,--.--,--.--,--.--,47.35,--.--,--.--,112,0,0.0,0.0,0.0,0,0,0,--.--,--.--,--.--
2021-10-29 12:22:24.962,0.4,-0.0,37,0.0,0.0,0.0,0.1,0.0,0.2,0.4,23.2,0.0,00:00:02,0.2,0,--.--,--.--,--.--,0,0000:00:00,0,0,0,49.73,0.26,43,--.--,99,--.--,--:--:--,0,12.93,12:22:24,29/10/21,--.--,--.--,--.--,--.--,--.--,--.--,--.--,--.--,--.--,--.--,--.--,--.--,0,0.000,0.000,0.000,0.000,0.000,0.000,0.000,0.000,0.000,0.000,0.000,0.000,false,false,false,false,false,false,false,false,false,false,false,false,--.--,--.--,--.--,--.--,--.--,--.--,--.--,--.--,11.2552068,75.8292445,43PEN 90513 44325,0.6,1.0,0.0,4,17,--.--,--.--,--.--,--.--,--.--,--.--,47.37,--.--,--.--,112,0,0.6,2.1,1.1,0,0,0,--.--,--.--,--.--
2021-10-29 12:22:25.963,0.5,-0.0,37,0.0,0.0,0.0,0.1,0.0,0.2,0.4,23.2,0.0,00:00:03,0.2,0,--.--,--.--,--.--,0,0000:00:00,0,0,0,49.76,0.31,44,--.--,99,--.--,--:--:--,0,15.43,12:22:25,29/10/21,--.--,--.--,--.--,--.--,--.--,--.--,--.--,--.--,--.--,--.--,--.--,--.--,0,0.000,0.000,0.000,0.000,0.000,0.000,0.000,0.000,0.000,0.000,0.000,0.000,false,false,false,false,false,false,false,false,false,false,false,false,--.--,--.--,--.--,--.--,--.--,--.--,--.--,--.--,11.2552063,75.8292443,43PEN 90513 44325,0.6,1.0,0.0,4,17,--.--,--.--,--.--,--.--,--.--,--.--,47.39,--.--,--.--,112,0,0.7,1.7,0.9,0,0,0,--.--,--.--,--.--
2021-10-29 12:22:26.961,0.4,-0.0,37,0.0,0.0,0.0,0.1,0.0,0.1,0.4,23.2,0.0,00:00:04,0.3,0,--.--,--.--,--.--,0,0000:00:00,0,0,0,49.74,0.30,44,--.--,99,--.--,--:--:--,0,14.92,12:22:26,29/10/21,--.--,--.--,--.--,--.--,--.--,--.--,--.--,--.--,--.--,--.--,--.--,--.--,0,0.000,0.000,0.000,0.000,0.000,0.000,0.000,0.000,0.000,0.000,0.000,0.000,false,false,false,false,false,false,false,false,false,false,false,false,--.--,--.--,--.--,--.--,--.--,--.--,--.--,--.--,11.2552060,75.8292456,43PEN 90514 44325,0.6,1.0,0.0,4,17,--.--,--.--,--.--,--.--,--.--,--.--,47.41,--.--,--.--,112,0,0.4,1.8,1.1,0,0,0,--.--,--.--,--.--
2021-10-29 12:22:27.962,0.5,-0.1,36,0.0,0.0,0.0,0.1,0.1,0.1,0.4,23.2,0.0,00:00:05,0.3,0,--.--,--.--,--.--,0,0000:00:00,0,0,0,49.69,0.23,44,--.--,99,--.--,--:--:--,0,11.43,12:22:27,29/10/21,--.--,--.--,--.--,--.--,--.--,--.--,--.--,--.--,--.--,--.--,--.--,--.--,0,0.000,0.000,0.000,0.000,0.000,0.000,0.000,0.000,0.000,0.000,0.000,0.000,false,false,false,false,false,false,false,false,false,false,false,false,--.--,--.--,--.--,--.--,--.--,--.--,--.--,--.--,11.2552052,75.8292460,43PEN 90514 44325,0.6,1.0,0.0,4,17,--.--,--.--,--.--,--.--,--.--,--.--,47.43,--.--,--.--,112,0,0.4,2.2,0.8,0,0,0,--.--,--.--,--.--
2021-10-29 12:22:28.961,0.5,-0.1,36,0.0,0.0,0.0,0.1,0.1,0.1,0.4,23.3,0.0,00:00:06,0.4,0,--.--,--.--,--.--,0,0000:00:00,0,0,0,49.75,0.33,44,--.--,99,--.--,--:--:--,0,16.42,12:22:28,29/10/21,--.--,--.--,--.--,--.--,--.--,--.--,--.--,--.--,--.--,--.--,--.--,--.--,0,0.000,0.000,0.000,0.000,0.000,0.000,0.000,0.000,0.000,0.000,0.000,0.000,false,false,false,false,false,false,false,false,false,false,false,false,--.--,--.--,--.--,--.--,--.--,--.--,--.--,--.--,11.2552041,75.8292449,43PEN 90514 44325,0.6,1.0,0.0,4,17,--.--,--.--,--.--,--.--,--.--,--.--,47.45,--.--,--.--,112,0,0.4,1.7,1.8,0,0,0,--.--,--.--,--.--
2021-10-29 12:22:29.961,0.5,-0.1,36,0.0,0.0,0.0,0.1,0.0,0.1,0.5,23.3,0.0,00:00:07,0.5,0,--.--,--.--,--.--,0,0000:00:00,0,0,0,49.74,0.32,44,--.--,99,--.--,--:--:--,0,15.92,12:22:29,29/10/21,--.--,--.--,--.--,--.--,--.--,--.--,--.--,--.--,--.--,--.--,--.--,--.--,0,0.000,0.000,0.000,0.000,0.000,0.000,0.000,0.000,0.000,0.000,0.000,0.000,false,false,false,false,false,false,false,false,false,false,false,false,--.--,--.--,--.--,--.--,--.--,--.--,--.--,--.--,11.2552029,75.8292443,43PEN 90513 44325,0.6,1.0,0.0,4,17,--.--,--.--,--.--,--.--,--.--,--.--,47.47,--.--,--.--,112,0,0.4,1.5,0.8,0,0,0,--.--,--.--,--.--
2021-10-29 12:22:30.961,0.5,-0.1,36,0.0,0.0,0.0,0.1,0.0,0.1,0.4,23.2,0.0,00:00:08,0.6,0,--.--,--.--,--.--,0,0000:00:00,0,0,0,49.63,0.31,44,--.--,99,--.--,--:--:--,0,15.38,12:22:30,29/10/21,--.--,--.--,--.--,--.--,--.--,--.--,--.--,--.--,--.--,--.--,--.--,--.--,0,0.000,0.000,0.000,0.000,0.000,0.000,0.000,0.000,0.000,0.000,0.000,0.000,false,false,false,false,false,false,false,false,false,false,false,false,--.--,--.--,--.--,--.--,--.--,--.--,--.--,--.--,11.2552014,75.8292436,43PEN 90513 44325,0.6,1.0,0.0,4,17,--.--,--.--,--.--,--.--,--.--,--.--,47.49,--.--,--.--,112,0,0.6,1.5,1.5,0,0,0,--.--,--.--,--.--
2021-10-29 12:22:31.961,0.5,-0.2,36,0.0,0.0,0.0,0.1,0.0,0.0,0.4,23.2,0.0,00:00:09,0.8,0,--.--,--.--,--.--,7,0000:00:00,0,0,0,49.64,0.29,44,--.--,99,--.--,--:--:--,0,14.40,12:22:31,29/10/21,--.--,--.--,--.--,--.--,--.--,--.--,--.--,--.--,--.--,--.--,--.--,--.--,0,0.000,0.000,0.000,0.000,0.000,0.000,0.000,0.000,0.000,0.000,0.000,0.000,false,false,false,false,false,false,false,false,false,false,false,false,--.--,--.--,--.--,--.--,--.--,--.--,--.--,--.--,11.2552005,75.8292443,43PEN 90513 44325,0.6,1.0,0.0,4,17,--.--,--.--,--.--,--.--,--.--,--.--,47.51,--.--,--.--,112,0,0.9,1.3,1.6,0,0,0,--.--,--.--,--.--
2021-10-29 12:22:32.961,-2.4,-1.0,18,0.0,0.0,0.0,0.2,0.3,0.5,0.6,23.4,0.0,00:00:10,0.8,0,--.--,--.--,--.--,15,0000:00:00,0,0,0,49.12,0.30,44,--.--,99,--.--,--:--:--,0,14.74,12:22:32,29/10/21,--.--,--.--,--.--,--.--,--.--,--.--,--.--,--.--,--.--,--.--,--.--,--.--,0,0.000,0.000,0.000,0.000,0.000,0.000,0.000,0.000,0.000,0.000,0.000,0.000,false,false,false,false,false,false,false,false,false,false,false,false,--.--,--.--,--.--,--.--,--.--,--.--,--.--,--.--,11.2552014,75.8292454,43PEN 90514 44325,0.6,1.0,0.0,4,18,--.--,--.--,--.--,--.--,--.--,--.--,47.54,--.--,--.--,112,0,0.7,0.8,1.6,0,0,0,--.--,--.--,--.--
2021-10-29 12:22:33.962,-1.8,-1.2,345,0.0,0.0,0.0,0.1,0.1,0.4,1.0,23.8,0.0,00:00:11,0.8,0,--.--,--.--,--.--,14,0000:00:00,0,0,0,49.01,0.19,44,--.--,99,--.--,--:--:--,0,9.31,12:22:33,29/10/21,--.--,--.--,--.--,--.--,--.--,--.--,--.--,--.--,--.--,--.--,--.--,--.--,0,0.000,0.000,0.000,0.000,0.000,0.000,0.000,0.000,0.000,0.000,0.000,0.000,false,false,false,false,false,false,false,false,false,false,false,false,--.--,--.--,--.--,--.--,--.--,--.--,--.--,--.--,11.2552010,75.8292465,43PEN 90514 44325,0.6,1.0,0.0,4,18,--.--,--.--,--.--,--.--,--.--,--.--,47.55,--.--,--.--,112,0,1.1,1.3,2.2,0,0,0,--.--,--.--,--.--
2021-10-29 12:22:34.961,-1.1,-1.5,353,0.0,0.0,0.0,0.1,0.2,0.4,1.3,24.1,0.0,00:00:12,0.8,0,--.--,--.--,--.--,15,0000:00:00,0,0,0,49.03,0.31,44,--.--,99,--.--,--:--:--,0,15.20,12:22:34,29/10/21,--.--,--.--,--.--,--.--,--.--,--.--,--.--,--.--,--.--,--.--,--.--,--.--,0,0.000,0.000,0.000,0.000,0.000,0.000,0.000,0.000,0.000,0.000,0.000,0.000,false,false,false,false,false,false,false,false,false,false,false,false,--.--,--.--,--.--,--.--,--.--,--.--,--.--,--.--,11.2552005,75.8292448,43PEN 90514 44325,0.6,1.0,0.0,4,18,--.--,--.--,--.--,--.--,--.--,--.--,47.57,--.--,--.--,112,0,1.5,1.7,3.5,0,0,0,--.--,--.--,--.--
2021-10-29 12:22:35.962,-0.7,-1.1,356,0.0,0.0,0.0,0.0,0.2,0.3,1.6,24.4,0.0,00:00:13,0.8,0,--.--,--.--,--.--,14,0000:00:00,0,0,0,48.98,0.29,44,--.--,99,--.--,--:--:--,0,14.21,12:22:35,29/10/21,--.--,--.--,--.--,--.--,--.--,--.--,--.--,--.--,--.--,--.--,--.--,--.--,0,0.000,0.000,0.000,0.000,0.000,0.000,0.000,0.000,0.000,0.000,0.000,0.000,false,false,false,false,false,false,false,false,false,false,false,false,--.--,--.--,--.--,--.--,--.--,--.--,--.--,--.--,11.2552016,75.8292433,43PEN 90513 44325,0.6,1.0,0.0,4,17,--.--,--.--,--.--,--.--,--.--,--.--,47.59,--.--,--.--,112,0,1.0,1.0,2.5,0,0,0,--.--,--.--,--.--
2021-10-29 12:22:36.963,0.3,-1.2,359,0.0,0.0,0.0,0.1,0.1,0.3,1.8,24.6,0.0,00:00:14,0.8,0,--.--,--.--,--.--,14,0000:00:00,0,0,0,49.01,0.30,44,--.--,99,--.--,--:--:--,0,14.70,12:22:36,29/10/21,--.--,--.--,--.--,--.--,--.--,--.--,--.--,--.--,--.--,--.--,--.--,--.--,0,0.000,0.000,0.000,0.000,0.000,0.000,0.000,0.000,0.000,0.000,0.000,0.000,false,false,false,false,false,false,false,false,false,false,false,false,--.--,--.--,--.--,--.--,--.--,--.--,--.--,--.--,11.2552015,75.8292418,43PEN 90513 44325,0.6,1.0,295.7,4,18,--.--,--.--,--.--,--.--,--.--,--.--,47.61,--.--,--.--,112,0,1.4,1.6,2.9,0,0,0,--.--,--.--,--.--
2021-10-29 12:22:37.960,-0.2,-2.7,1,0.0,0.0,0.0,0.3,0.3,0.3,2.1,24.9,0.0,00:00:15,1.0,0,--.--,--.--,--.--,14,0000:00:00,0,0,0,48.96,0.28,44,--.--,99,--.--,--:--:--,0,13.71,12:22:37,29/10/21,--.--,--.--,--.--,--.--,--.--,--.--,--.--,--.--,--.--,--.--,--.--,--.--,0,0.000,0.000,0.000,0.000,0.000,0.000,0.000,0.000,0.000,0.000,0.000,0.000,false,false,false,false,false,false,false,false,false,false,false,false,--.--,--.--,--.--,--.--,--.--,--.--,--.--,--.--,11.2552004,75.8292412,43PEN 90513 44325,0.6,1.0,295.7,4,18,--.--,--.--,--.--,--.--,--.--,--.--,47.62,--.--,--.--,112,0,1.0,0.9,2.1,0,0,0,--.--,--.--,--.--
2021-10-29 12:22:38.961,-2.1,-3.4,1,0.0,0.0,0.0,0.3,0.3,0.2,2.4,25.2,0.0,00:00:16,1.1,0,--.--,9,--.--,14,0000:00:00,0,0,0,48.91,0.28,44,--.--,99,--.--,--:--:--,0,13.70,12:22:38,29/10/21,--.--,--.--,--.--,--.--,--.--,--.--,--.--,--.--,--.--,--.--,--.--,--.--,0,0.000,0.000,0.000,0.000,0.000,0.000,0.000,0.000,0.000,0.000,0.000,0.000,false,false,false,false,false,false,false,false,false,false,false,false,--.--,--.--,--.--,--.--,--.--,--.--,--.--,--.--,11.2551983,75.8292424,43PEN 90513 44324,0.6,1.0,141.2,4,16,--.--,--.--,--.--,--.--,--.--,--.--,47.64,--.--,--.--,112,0,1.5,1.6,3.3,0,0,0,--.--,--.--,--.--
2021-10-29 12:22:39.963,-2.7,-2.7,0,0.0,0.0,0.0,0.3,0.3,0.2,2.6,25.4,0.0,00:00:17,1.1,0,--.--,3,--.--,14,0000:00:00,0,0,0,48.93,0.29,45,--.--,99,--.--,--:--:--,0,14.19,12:22:39,29/10/21,--.--,--.--,--.--,--.--,--.--,--.--,--.--,--.--,--.--,--.--,--.--,--.--,0,0.000,0.000,0.000,0.000,0.000,0.000,0.000,0.000,0.000,0.000,0.000,0.000,false,false,false,false,false,false,false,false,false,false,false,false,--.--,--.--,--.--,--.--,--.--,--.--,--.--,--.--,11.2551975,75.8292452,43PEN 90514 44324,0.6,1.0,93.2,4,18,--.--,--.--,--.--,--.--,--.--,--.--,47.66,--.--,--.--,112,0,1.3,1.4,2.7,0,0,0,--.--,--.--,--.--
2021-10-29 12:22:40.962,-3.8,-1.2,1,0.0,0.0,0.0,0.3,0.4,0.1,3.0,25.8,0.0,00:00:18,0.9,0,--.--,--.--,--.--,14,0000:00:00,0,0,0,48.85,0.16,45,--.--,99,--.--,--:--:--,0,7.82,12:22:40,29/10/21,--.--,--.--,--.--,--.--,--.--,--.--,--.--,--.--,--.--,--.--,--.--,--.--,0,0.000,0.000,0.000,0.000,0.000,0.000,0.000,0.000,0.000,0.000,0.000,0.000,false,false,false,false,false,false,false,false,false,false,false,false,--.--,--.--,--.--,--.--,--.--,--.--,--.--,--.--,11.2551981,75.8292484,43PEN 90514 44324,0.6,1.0,55.7,4,18,--.--,--.--,--.--,--.--,--.--,--.--,47.67,--.--,--.--,112,0,1.0,1.2,2.6,0,0,0,--.--,--.--,--.--
2021-10-29 12:22:41.962,-1.1,-0.2,1,0.0,0.0,0.0,0.3,0.5,0.2,3.2,26.1,0.0,00:00:19,0.7,0,--.--,--.--,--.--,14,0000:00:00,0,0,0,48.89,0.29,45,--.--,99,--.--,--:--:--,0,14.18,12:22:41,29/10/21,--.--,--.--,--.--,--.--,--.--,--.--,--.--,--.--,--.--,--.--,--.--,--.--,0,0.000,0.000,0.000,0.000,0.000,0.000,0.000,0.000,0.000,0.000,0.000,0.000,false,false,false,false,false,false,false,false,false,false,false,false,--.--,--.--,--.--,--.--,--.--,--.--,--.--,--.--,11.2552002,75.8292476,43PEN 90514 44325,0.6,1.0,355.4,4,18,--.--,--.--,--.--,--.--,--.--,--.--,47.69,--.--,--.--,112,0,0.9,1.2,2.2,0,0,0,--.--,--.--,--.--
2021-10-29 12:22:42.961,0.4,-3.3,1,0.0,0.0,0.0,0.1,0.4,0.2,3.4,26.2,0.0,00:00:20,0.6,0,--.--,--.--,--.--,14,0000:00:00,0,0,0,48.89,0.30,45,--.--,99,--.--,--:--:--,0,14.67,12:22:42,29/10/21,--.--,--.--,--.--,--.--,--.--,--.--,--.--,--.--,--.--,--.--,--.--,--.--,0,0.000,0.000,0.000,0.000,0.000,0.000,0.000,0.000,0.000,0.000,0.000,0.000,false,false,false,false,false,false,false,false,false,false,false,false,--.--,--.--,--.--,--.--,--.--,--.--,--.--,--.--,11.2552021,75.8292440,43PEN 90513 44325,0.6,1.0,314.6,4,18,--.--,--.--,--.--,--.--,--.--,--.--,47.69,--.--,--.--,112,0,0.7,1.0,1.6,0,0,0,--.--,--.--,--.--
2021-10-29 12:22:43.962,1.7,-8.3,1,0.0,0.0,0.0,1.1,0.6,0.3,3.7,26.5,0.0,00:00:21,0.2,0,--.--,--.--,--.--,14,0000:00:00,0,0,0,48.84,0.29,45,--.--,99,--.--,--:--:--,0,14.17,12:22:43,29/10/21,--.--,--.--,--.--,--.--,--.--,--.--,--.--,--.--,--.--,--.--,--.--,--.--,0,0.000,0.000,0.000,0.000,0.000,0.000,0.000,0.000,0.000,0.000,0.000,0.000,false,false,false,false,false,false,false,false,false,false,false,false,--.--,--.--,--.--,--.--,--.--,--.--,--.--,--.--,11.2552041,75.8292413,43PEN 90513 44325,0.6,1.0,310.2,4,18,--.--,--.--,--.--,--.--,--.--,--.--,47.70,--.--,--.--,112,0,1.0,1.1,2.2,0,0,0,--.--,--.--,--.--
2021-10-29 12:22:44.961,-3.8,-3.3,2,0.0,0.0,0.0,2.0,1.8,0.3,4.0,26.8,0.0,00:00:22,1.1,0,--.--,198,--.--,10,0000:00:00,0,0,0,48.90,0.32,45,--.--,99,--.--,--:--:--,0,15.65,12:22:44,29/10/21,--.--,--.--,--.--,--.--,--.--,--.--,--.--,--.--,--.--,--.--,--.--,--.--,0,0.000,0.000,0.000,0.000,0.000,0.000,0.000,0.000,0.000,0.000,0.000,0.000,false,false,false,false,false,false,false,false,false,false,false,false,--.--,--.--,--.--,--.--,--.--,--.--,--.--,--.--,11.2552090,75.8292464,43PEN 90514 44326,0.6,1.0,53.1,4,18,--.--,--.--,--.--,--.--,--.--,--.--,47.71,--.--,--.--,112,0,1.6,1.6,4.6,0,0,0,--.--,--.--,--.--
2021-10-29 12:22:45.961,-9.0,-2.7,359,0.0,0.0,0.0,1.6,1.9,-0.0,4.6,27.4,2.2,00:00:23,2.7,0,--.--,205,--.--,6,0000:00:00,0,0,0,48.91,0.28,45,--.--,99,--.--,--:--:--,0,13.70,12:22:45,29/10/21,--.--,--.--,--.--,--.--,--.--,--.--,--.--,--.--,--.--,--.--,--.--,--.--,0,0.000,0.000,0.000,0.000,0.000,0.000,0.000,0.000,0.000,0.000,0.000,0.000,false,false,false,false,false,false,false,false,false,false,false,false,--.--,--.--,--.--,--.--,--.--,--.--,--.--,--.--,11.2552215,75.8292571,43PEN 90515 44327,0.6,1.0,35.9,4,18,--.--,--.--,--.--,--.--,--.--,--.--,47.71,--.--,--.--,112,0,1.3,1.8,3.6,0,0,0,--.--,--.--,--.--
2021-10-29 12:22:46.961,-7.8,2.1,333,0.0,0.0,0.0,1.1,2.3,-0.1,4.8,27.6,2.2,00:00:24,4.0,0,--.--,197,--.--,10,0000:00:00,0,0,0,48.71,0.35,45,--.--,99,--.--,--:--:--,0,17.05,12:22:46,29/10/21,--.--,--.--,--.--,--.--,--.--,--.--,--.--,--.--,--.--,--.--,--.--,--.--,0,0.000,0.000,0.000,0.000,0.000,0.000,0.000,0.000,0.000,0.000,0.000,0.000,false,false,false,false,false,false,false,false,false,false,false,false,--.--,--.--,--.--,--.--,--.--,--.--,--.--,--.--,11.2552387,75.8292609,43PEN 90515 44329,0.6,1.0,0.6,4,18,--.--,--.--,--.--,--.--,--.--,--.--,47.72,--.--,--.--,112,0,1.2,1.7,3.2,0,0,0,--.--,--.--,--.--
2021-10-29 12:22:47.962,-6.5,10.2,312,0.0,0.0,0.0,0.9,2.3,0.1,4.8,27.6,4.5,00:00:25,5.0,0,--.--,181,--.--,12,0000:00:00,0,0,0,48.77,0.30,45,--.--,99,--.--,--:--:--,0,14.63,12:22:47,29/10/21,--.--,--.--,--.--,--.--,--.--,--.--,--.--,--.--,--.--,--.--,--.--,--.--,0,0.000,0.000,0.000,0.000,0.000,0.000,0.000,0.000,0.000,0.000,0.000,0.000,false,false,false,false,false,false,false,false,false,false,false,false,--.--,--.--,--.--,--.--,--.--,--.--,--.--,--.--,11.2552550,75.8292514,43PEN 90514 44331,0.6,1.0,314.7,4,19,--.--,--.--,--.--,--.--,--.--,--.--,47.71,--.--,--.--,112,0,1.2,1.4,3.3,0,0,0,--.--,--.--,--.--
2021-10-29 12:22:48.961,11.7,9.5,321,0.0,0.0,0.0,1.5,2.6,0.4,4.7,27.5,6.8,00:00:26,4.8,0,--.--,164,--.--,17,0000:00:00,0,0,0,48.57,0.32,45,--.--,99,--.--,--:--:--,0,15.54,12:22:48,29/10/21,--.--,--.--,--.--,--.--,--.--,--.--,--.--,--.--,--.--,--.--,--.--,--.--,0,0.000,0.000,0.000,0.000,0.000,0.000,0.000,0.000,0.000,0.000,0.000,0.000,false,false,false,false,false,false,false,false,false,false,false,false,--.--,--.--,--.--,--.--,--.--,--.--,--.--,--.--,11.2552573,75.8292324,43PEN 90512 44331,0.6,1.0,265.5,4,19,--.--,--.--,--.--,--.--,--.--,--.--,47.71,--.--,--.--,112,0,1.9,1.9,2.0,0,0,0,--.--,--.--,--.--
2021-10-29 12:22:49.961,13.5,-7.7,333,0.0,0.0,0.0,1.9,2.5,0.5,4.9,27.7,6.8,00:00:27,3.7,0,--.--,150,--.--,15,0000:00:00,0,0,0,48.72,0.30,45,--.--,99,--.--,--:--:--,0,14.62,12:22:49,29/10/21,--.--,--.--,--.--,--.--,--.--,--.--,--.--,--.--,--.--,--.--,--.--,--.--,0,0.000,0.000,0.000,0.000,0.000,0.000,0.000,0.000,0.000,0.000,0.000,0.000,false,false,false,false,false,false,false,false,false,false,false,false,--.--,--.--,--.--,--.--,--.--,--.--,--.--,--.--,11.2552416,75.8292183,43PEN 90511 44329,0.6,1.0,204.8,4,17,--.--,--.--,--.--,--.--,--.--,--.--,47.70,--.--,--.--,112,0,1.1,1.7,2.8,0,0,0,--.--,--.--,--.--
2021-10-29 12:22:50.961,7.1,-12.5,325,0.0,0.0,0.0,2.2,2.6,0.5,5.3,28.1,9.1,00:00:28,2.3,0,--.--,155,--.--,11,0000:00:00,0,0,0,48.81,0.29,45,--.--,99,--.--,--:--:--,0,14.15,12:22:50,29/10/21,--.--,--.--,--.--,--.--,--.--,--.--,--.--,--.--,--.--,--.--,--.--,--.--,0,0.000,0.000,0.000,0.000,0.000,0.000,0.000,0.000,0.000,0.000,0.000,0.000,false,false,false,false,false,false,false,false,false,false,false,false,--.--,--.--,--.--,--.--,--.--,--.--,--.--,--.--,11.2552230,75.8292264,43PEN 90511 44327,0.6,1.0,143.3,4,18,--.--,--.--,--.--,--.--,--.--,--.--,47.70,--.--,--.--,112,0,1.8,3.5,4.2,0,0,0,--.--,--.--,--.--
2021-10-29 12:22:51.960,10.1,-16.4,266,0.0,0.0,0.0,2.4,3.1,0.2,5.9,28.7,11.5,00:00:29,2.4,0,--.--,203,--.--,4,0000:00:00,0,0,0,48.88,0.29,45,--.--,99,--.--,--:--:--,0,14.17,12:22:51,29/10/21,--.--,--.--,--.--,--.--,--.--,--.--,--.--,--.--,--.--,--.--,--.--,--.--,0,0.000,0.000,0.000,0.000,0.000,0.000,0.000,0.000,0.000,0.000,0.000,0.000,false,false,false,false,false,false,false,false,false,false,false,false,--.--,--.--,--.--,--.--,--.--,--.--,--.--,--.--,11.2552173,75.8292523,43PEN 90514 44327,0.6,1.0,88.8,4,17,--.--,--.--,--.--,--.--,--.--,--.--,47.69,--.--,--.--,112,0,1.9,3.6,4.9,0,0,0,--.--,--.--,--.--
2021-10-29 12:22:52.961,13.2,-13.0,176,0.0,0.0,0.0,2.6,2.6,0.1,5.9,28.8,11.5,00:00:30,4.2,0,--.--,205,--.--,16,0000:00:00,0,0,0,48.64,0.29,45,--.--,99,--.--,--:--:--,0,14.11,12:22:52,29/10/21,--.--,--.--,--.--,--.--,--.--,--.--,--.--,--.--,--.--,--.--,--.--,--.--,0,0.000,0.000,0.000,0.000,0.000,0.000,0.000,0.000,0.000,0.000,0.000,0.000,false,false,false,false,false,false,false,false,false,false,false,false,--.--,--.--,--.--,--.--,--.--,--.--,--.--,--.--,11.2552320,75.8292733,43PEN 90517 44328,0.6,1.0,34.4,4,17,--.--,--.--,--.--,--.--,--.--,--.--,47.68,--.--,--.--,112,0,2.0,3.4,4.2,0,0,0,--.--,--.--,--.--
2021-10-29 12:22:53.963,5.1,-13.1,141,0.0,0.0,0.0,2.4,2.5,0.3,6.1,28.9,13.7,00:00:31,4.9,0,--.--,187,--.--,13,0000:00:00,0,0,0,48.64,0.32,46,--.--,99,--.--,--:--:--,0,15.57,12:22:53,29/10/21,--.--,--.--,--.--,--.--,--.--,--.--,--.--,--.--,--.--,--.--,--.--,--.--,0,0.000,0.000,0.000,0.000,0.000,0.000,0.000,0.000,0.000,0.000,0.000,0.000,false,false,false,false,false,false,false,false,false,false,false,false,--.--,--.--,--.--,--.--,--.--,--.--,--.--,--.--,11.2552539,75.8292677,43PEN 90516 44331,0.6,1.0,321.4,4,19,--.--,--.--,--.--,--.--,--.--,--.--,47.66,--.--,--.--,112,0,1.0,1.8,1.8,0,0,0,--.--,--.--,--.--
2021-10-29 12:22:54.962,-11.3,-11.4,143,0.0,0.0,0.0,1.7,2.1,0.3,6.3,29.1,16.0,00:00:32,4.6,0,--.--,170,--.--,13,0000:00:00,0,0,0,48.63,0.30,46,--.--,99,--.--,--:--:--,0,14.59,12:22:54,29/10/21,--.--,--.--,--.--,--.--,--.--,--.--,--.--,--.--,--.--,--.--,--.--,--.--,0,0.000,0.000,0.000,0.000,0.000,0.000,0.000,0.000,0.000,0.000,0.000,0.000,false,false,false,false,false,false,false,false,false,false,false,false,--.--,--.--,--.--,--.--,--.--,--.--,--.--,--.--,11.2552586,75.8292447,43PEN 90513 44331,0.6,1.0,260.4,4,18,--.--,--.--,--.--,--.--,--.--,--.--,47.64,--.--,--.--,112,0,1.1,1.8,2.1,0,0,0,--.--,--.--,--.--
2021-10-29 12:22:55.961,-11.0,5.1,156,0.0,0.0,0.0,1.2,2.0,0.3,6.5,29.4,16.0,00:00:33,3.9,0,--.--,166,--.--,10,0000:00:00,0,0,0,48.67,0.31,46,--.--,99,--.--,--:--:--,0,15.09,12:22:55,29/10/21,--.--,--.--,--.--,--.--,--.--,--.--,--.--,--.--,--.--,--.--,--.--,--.--,0,0.000,0.000,0.000,0.000,0.000,0.000,0.000,0.000,0.000,0.000,0.000,0.000,false,false,false,false,false,false,false,false,false,false,false,false,--.--,--.--,--.--,--.--,--.--,--.--,--.--,--.--,11.2552438,75.8292345,43PEN 90512 44329,0.6,1.0,191.8,4,19,--.--,--.--,--.--,--.--,--.--,--.--,47.62,--.--,--.--,112,0,1.3,2.0,3.3,0,0,0,--.--,--.--,--.--
2021-10-29 12:22:56.962,-0.1,8.4,163,0.0,0.0,0.0,0.9,1.7,0.4,6.8,29.6,16.0,00:00:34,2.8,0,--.--,179,--.--,15,0000:00:00,0,0,0,48.72,0.33,46,--.--,99,--.--,--:--:--,0,16.08,12:22:56,29/10/21,--.--,--.--,--.--,--.--,--.--,--.--,--.--,--.--,--.--,--.--,--.--,--.--,0,0.000,0.000,0.000,0.000,0.000,0.000,0.000,0.000,0.000,0.000,0.000,0.000,false,false,false,false,false,false,false,false,false,false,false,false,--.--,--.--,--.--,--.--,--.--,--.--,--.--,--.--,11.2552306,75.8292417,43PEN 90513 44328,0.6,1.0,138.1,4,18,--.--,--.--,--.--,--.--,--.--,--.--,47.60,--.--,--.--,112,0,1.3,1.5,3.4,0,0,0,--.--,--.--,--.--
2021-10-29 12:22:57.961,5.5,3.7,164,0.0,0.0,0.0,1.1,1.3,0.2,7.3,30.1,18.1,00:00:35,3.1,0,--.--,196,--.--,13,0000:00:00,0,0,0,48.72,0.29,46,--.--,99,--.--,--:--:--,0,14.13,12:22:57,29/10/21,--.--,--.--,--.--,--.--,--.--,--.--,--.--,--.--,--.--,--.--,--.--,--.--,0,0.000,0.000,0.000,0.000,0.000,0.000,0.000,0.000,0.000,0.000,0.000,0.000,false,false,false,false,false,false,false,false,false,false,false,false,--.--,--.--,--.--,--.--,--.--,--.--,--.--,--.--,11.2552296,75.8292555,43PEN 90515 44328,0.6,1.0,81.1,4,17,--.--,--.--,--.--,--.--,--.--,--.--,47.57,--.--,--.--,112,0,1.6,2.1,3.5,0,0,0,--.--,--.--,--.--
2021-10-29 12:22:58.961,5.5,-2.4,164,0.0,0.0,0.0,1.1,1.2,0.1,7.5,30.3,18.1,00:00:36,3.7,0,--.--,198,--.--,15,0000:00:00,0,0,0,48.68,0.30,46,--.--,99,--.--,--:--:--,0,14.60,12:22:58,29/10/21,--.--,--.--,--.--,--.--,--.--,--.--,--.--,--.--,--.--,--.--,--.--,--.--,0,0.000,0.000,0.000,0.000,0.000,0.000,0.000,0.000,0.000,0.000,0.000,0.000,false,false,false,false,false,false,false,false,false,false,false,false,--.--,--.--,--.--,--.--,--.--,--.--,--.--,--.--,11.2552390,75.8292627,43PEN 90515 44329,0.6,1.0,26.6,4,17,--.--,--.--,--.--,--.--,--.--,--.--,47.55,--.--,--.--,112,0,1.4,1.9,3.6,0,0,0,--.--,--.--,--.--
2021-10-29 12:22:59.961,-0.7,-4.5,165,0.0,0.0,0.0,1.0,1.0,0.2,7.8,30.6,18.1,00:00:37,4.4,0,--.--,189,--.--,14,0000:00:00,0,0,0,48.66,0.26,46,--.--,99,--.--,--:--:--,0,12.65,12:22:59,29/10/21,--.--,--.--,--.--,--.--,--.--,--.--,--.--,--.--,--.--,--.--,--.--,--.--,0,0.000,0.000,0.000,0.000,0.000,0.000,0.000,0.000,0.000,0.000,0.000,0.000,false,false,false,false,false,false,false,false,false,false,false,false,--.--,--.--,--.--,--.--,--.--,--.--,--.--,--.--,11.2552487,75.8292592,43PEN 90515 44330,0.6,1.0,324.0,4,18,--.--,--.--,--.--,--.--,--.--,--.--,47.52,--.--,--.--,112,0,0.9,1.2,2.3,0,0,0,--.--,--.--,--.--
2021-10-29 12:23:00.961,-3.4,-5.1,160,0.0,0.0,0.0,0.8,1.1,0.2,8.0,30.8,18.1,00:00:38,4.5,0,--.--,180,--.--,15,0000:00:00,0,0,0,48.63,0.31,46,--.--,99,--.--,--:--:--,0,15.08,12:23:00,29/10/21,--.--,--.--,--.--,--.--,--.--,--.--,--.--,--.--,--.--,--.--,--.--,--.--,0,0.000,0.000,0.000,0.000,0.000,0.000,0.000,0.000,0.000,0.000,0.000,0.000,false,false,false,false,false,false,false,false,false,false,false,false,--.--,--.--,--.--,--.--,--.--,--.--,--.--,--.--,11.2552544,75.8292498,43PEN 90514 44331,0.6,1.0,283.6,4,17,--.--,--.--,--.--,--.--,--.--,--.--,47.49,--.--,--.--,112,0,1.0,1.5,2.0,0,0,0,--.--,--.--,--.--
2021-10-29 12:23:01.962,-6.9,-3.0,160,0.0,0.0,0.0,0.6,0.9,0.2,8.2,31.0,18.1,00:00:39,4.4,0,--.--,174,--.--,12,0000:00:00,0,0,0,48.57,0.30,46,--.--,99,--.--,--:--:--,0,14.57,12:23:01,29/10/21,--.--,--.--,--.--,--.--,--.--,--.--,--.--,--.--,--.--,--.--,--.--,--.--,0,0.000,0.000,0.000,0.000,0.000,0.000,0.000,0.000,0.000,0.000,0.000,0.000,false,false,false,false,false,false,false,false,false,false,false,false,--.--,--.--,--.--,--.--,--.--,--.--,--.--,--.--,11.2552513,75.8292400,43PEN 90513 44330,0.6,1.0,239.7,4,17,--.--,--.--,--.--,--.--,--.--,--.--,47.47,--.--,--.--,112,0,1.1,1.2,2.8,0,0,0,--.--,--.--,--.--
2021-10-29 12:23:02.962,-5.3,1.1,162,0.0,0.0,0.0,0.6,0.9,0.2,8.5,31.4,18.1,00:00:40,3.8,0,--.--,171,--.--,14,0000:00:00,0,0,0,48.62,0.20,46,--.--,99,--.--,--:--:--,0,9.72,12:23:02,29/10/21,--.--,--.--,--.--,--.--,--.--,--.--,--.--,--.--,--.--,--.--,--.--,--.--,0,0.000,0.000,0.000,0.000,0.000,0.000,0.000,0.000,0.000,0.000,0.000,0.000,false,false,false,false,false,false,false,false,false,false,false,false,--.--,--.--,--.--,--.--,--.--,--.--,--.--,--.--,11.2552456,75.8292378,43PEN 90513 44330,0.6,1.0,175.9,4,17,--.--,--.--,--.--,--.--,--.--,--.--,47.44,--.--,--.--,112,0,1.6,2.0,4.4,0,0,0,--.--,--.--,--.--
2021-10-29 12:23:03.961,-0.1,2.5,163,0.0,0.0,0.0,0.4,0.9,0.1,8.8,31.6,18.1,00:00:41,3.5,0,--.--,177,--.--,15,0000:00:00,0,0,0,48.55,0.25,46,--.--,99,--.--,--:--:--,0,12.14,12:23:03,29/10/21,--.--,--.--,--.--,--.--,--.--,--.--,--.--,--.--,--.--,--.--,--.--,--.--,0,0.000,0.000,0.000,0.000,0.000,0.000,0.000,0.000,0.000,0.000,0.000,0.000,false,false,false,false,false,false,false,false,false,false,false,false,--.--,--.--,--.--,--.--,--.--,--.--,--.--,--.--,11.2552401,75.8292416,43PEN 90513 44329,0.6,1.0,119.7,4,17,--.--,--.--,--.--,--.--,--.--,--.--,47.41,--.--,--.--,112,0,1.0,1.6,3.5,0,0,0,--.--,--.--,--.--
2021-10-29 12:23:04.961,1.7,0.7,164,0.0,0.0,0.0,0.3,0.4,0.2,9.0,31.8,18.1,00:00:42,3.5,0,--.--,184,--.--,15,0000:00:00,0,0,0,48.62,0.28,46,--.--,99,--.--,--:--:--,0,13.61,12:23:04,29/10/21,--.--,--.--,--.--,--.--,--.--,--.--,--.--,--.--,--.--,--.--,--.--,--.--,0,0.000,0.000,0.000,0.000,0.000,0.000,0.000,0.000,0.000,0.000,0.000,0.000,false,false,false,false,false,false,false,false,false,false,false,false,--.--,--.--,--.--,--.--,--.--,--.--,--.--,--.--,11.2552389,75.8292483,43PEN 90514 44329,0.6,1.0,89.5,4,18,--.--,--.--,--.--,--.--,--.--,--.--,47.38,--.--,--.--,112,0,1.5,1.7,3.5,0,0,0,--.--,--.--,--.--
2021-10-29 12:23:05.961,0.1,-1.9,164,0.0,0.0,0.0,0.4,0.5,0.2,9.2,32.1,18.1,00:00:43,3.8,0,--.--,184,--.--,15,0000:00:00,0,0,0,48.56,0.24,46,--.--,99,--.--,--:--:--,0,11.65,12:23:05,29/10/21,--.--,--.--,--.--,--.--,--.--,--.--,--.--,--.--,--.--,--.--,--.--,--.--,0,0.000,0.000,0.000,0.000,0.000,0.000,0.000,0.000,0.000,0.000,0.000,0.000,false,false,false,false,false,false,false,false,false,false,false,false,--.--,--.--,--.--,--.--,--.--,--.--,--.--,--.--,11.2552425,75.8292505,43PEN 90514 44329,0.6,1.0,70.9,4,17,--.--,--.--,--.--,--.--,--.--,--.--,47.36,--.--,--.--,112,0,1.2,1.7,2.7,0,0,0,--.--,--.--,--.--
2021-10-29 12:23:06.963,-0.1,-4.2,163,0.0,0.0,0.0,0.4,0.4,0.2,9.5,32.3,18.1,00:00:44,4.2,0,--.--,183,--.--,15,0000:00:00,0,0,0,48.57,0.28,46,--.--,99,--.--,--:--:--,0,13.60,12:23:06,29/10/21,--.--,--.--,--.--,--.--,--.--,--.--,--.--,--.--,--.--,--.--,--.--,--.--,0,0.000,0.000,0.000,0.000,0.000,0.000,0.000,0.000,0.000,0.000,0.000,0.000,false,false,false,false,false,false,false,false,false,false,false,false,--.--,--.--,--.--,--.--,--.--,--.--,--.--,--.--,11.2552467,75.8292502,43PEN 90514 44330,0.6,1.0,359.3,4,18,--.--,--.--,--.--,--.--,--.--,--.--,47.33,--.--,--.--,112,0,1.3,1.3,3.4,0,0,0,--.--,--.--,--.--
2021-10-29 12:23:07.962,-1.9,-3.1,165,0.0,0.0,0.0,0.4,0.4,0.1,9.8,32.6,18.1,00:00:45,4.2,0,--.--,180,--.--,14,0000:00:00,0,0,0,48.58,0.31,47,--.--,99,--.--,--:--:--,0,15.06,12:23:07,29/10/21,--.--,--.--,--.--,--.--,--.--,--.--,--.--,--.--,--.--,--.--,--.--,--.--,0,0.000,0.000,0.000,0.000,0.000,0.000,0.000,0.000,0.000,0.000,0.000,0.000,false,false,false,false,false,false,false,false,false,false,false,false,--.--,--.--,--.--,--.--,--.--,--.--,--.--,--.--,11.2552486,75.8292476,43PEN 90514 44330,0.6,1.0,286.2,4,17,--.--,--.--,--.--,--.--,--.--,--.--,47.30,--.--,--.--,112,0,0.9,1.2,2.4,0,0,0,--.--,--.--,--.--
2021-10-29 12:23:08.963,-2.6,-1.7,165,0.0,0.0,0.0,0.3,0.3,0.1,10.1,32.9,18.1,00:00:46,4.0,0,--.--,177,--.--,14,0000:00:00,0,0,0,48.57,0.33,47,--.--,99,--.--,--:--:--,0,16.03,12:23:08,29/10/21,--.--,--.--,--.--,--.--,--.--,--.--,--.--,--.--,--.--,--.--,--.--,--.--,0,0.000,0.000,0.000,0.000,0.000,0.000,0.000,0.000,0.000,0.000,0.000,0.000,false,false,false,false,false,false,false,false,false,false,false,false,--.--,--.--,--.--,--.--,--.--,--.--,--.--,--.--,11.2552470,75.8292441,43PEN 90513 44330,0.7,1.0,248.1,4,16,--.--,--.--,--.--,--.--,--.--,--.--,47.28,--.--,--.--,112,0,1.1,1.3,3.0,0,0,0,--.--,--.--,--.--
2021-10-29 12:23:09.963,-2.9,-0.4,169,0.0,0.0,0.0,0.2,0.2,0.1,10.3,33.1,18.1,00:00:47,3.9,0,--.--,176,--.--,15,0000:00:00,0,0,0,48.58,0.32,47,--.--,99,--.--,--:--:--,0,15.55,12:23:09,29/10/21,--.--,--.--,--.--,--.--,--.--,--.--,--.--,--.--,--.--,--.--,--.--,--.--,0,0.000,0.000,0.000,0.000,0.000,0.000,0.000,0.000,0.000,0.000,0.000,0.000,false,false,false,false,false,false,false,false,false,false,false,false,--.--,--.--,--.--,--.--,--.--,--.--,--.--,--.--,11.2552436,75.8292426,43PEN 90513 44329,0.6,1.0,217.4,4,17,--.--,--.--,--.--,--.--,--.--,--.--,47.26,--.--,--.--,112,0,1.3,1.3,2.8,0,0,0,--.--,--.--,--.--
2021-10-29 12:23:10.962,0.4,-0.2,158,0.0,0.0,0.0,0.2,0.3,0.1,10.6,33.4,18.1,00:00:48,3.7,0,--.--,178,--.--,14,0000:00:00,0,0,0,48.57,0.28,47,--.--,99,--.--,--:--:--,0,13.60,12:23:10,29/10/21,--.--,--.--,--.--,--.--,--.--,--.--,--.--,--.--,--.--,--.--,--.--,--.--,0,0.000,0.000,0.000,0.000,0.000,0.000,0.000,0.000,0.000,0.000,0.000,0.000,false,false,false,false,false,false,false,false,false,false,false,false,--.--,--.--,--.--,--.--,--.--,--.--,--.--,--.--,11.2552423,75.8292438,43PEN 90513 44329,0.7,1.0,217.4,4,16,--.--,--.--,--.--,--.--,--.--,--.--,47.23,--.--,--.--,112,0,0.6,1.4,1.1,0,0,0,--.--,--.--,--.--
2021-10-29 12:23:11.961,-2.8,-1.7,68,0.0,0.0,0.0,0.0,0.2,0.1,10.9,33.7,18.1,00:00:49,3.6,0,--.--,180,--.--,15,0000:00:00,0,0,0,48.48,0.31,47,--.--,99,--.--,--:--:--,0,15.03,12:23:11,29/10/21,--.--,--.--,--.--,--.--,--.--,--.--,--.--,--.--,--.--,--.--,--.--,--.--,0,0.000,0.000,0.000,0.000,0.000,0.000,0.000,0.000,0.000,0.000,0.000,0.000,false,false,false,false,false,false,false,false,false,false,false,false,--.--,--.--,--.--,--.--,--.--,--.--,--.--,--.--,11.2552391,75.8292465,43PEN 90514 44329,0.6,1.0,146.5,4,19,--.--,--.--,--.--,--.--,--.--,--.--,47.21,--.--,--.--,112,0,2.3,2.2,2.1,0,0,0,--.--,--.--,--.--
2021-10-29 12:23:12.962,-3.7,-0.1,36,0.0,0.0,0.0,0.2,0.4,0.1,11.1,34.0,18.1,00:00:50,3.5,0,--.--,184,--.--,13,0000:00:00,0,0,0,48.42,0.23,47,--.--,99,--.--,--:--:--,0,11.14,12:23:12,29/10/21,--.--,--.--,--.--,--.--,--.--,--.--,--.--,--.--,--.--,--.--,--.--,--.--,0,0.000,0.000,0.000,0.000,0.000,0.000,0.000,0.000,0.000,0.000,0.000,0.000,false,false,false,false,false,false,false,false,false,false,false,false,--.--,--.--,--.--,--.--,--.--,--.--,--.--,--.--,11.2552387,75.8292482,43PEN 90514 44329,0.6,1.0,115.8,4,19,--.--,--.--,--.--,--.--,--.--,--.--,47.19,--.--,--.--,112,0,0.8,1.6,1.1,0,0,0,--.--,--.--,--.--
2021-10-29 12:23:13.960,-2.2,2.6,46,0.0,0.0,0.0,0.4,0.4,-0.1,11.3,34.1,18.1,00:00:51,3.8,0,--.--,184,--.--,11,0000:00:00,0,0,0,48.46,0.25,47,--.--,99,--.--,--:--:--,0,12.12,12:23:13,29/10/21,--.--,--.--,--.--,--.--,--.--,--.--,--.--,--.--,--.--,--.--,--.--,--.--,0,0.000,0.000,0.000,0.000,0.000,0.000,0.000,0.000,0.000,0.000,0.000,0.000,false,false,false,false,false,false,false,false,false,false,false,false,--.--,--.--,--.--,--.--,--.--,--.--,--.--,--.--,11.2552408,75.8292497,43PEN 90514 44329,0.6,1.0,21.0,4,20,--.--,--.--,--.--,--.--,--.--,--.--,47.17,--.--,--.--,112,0,1.1,2.1,1.8,0,0,0,--.--,--.--,--.--
2021-10-29 12:23:14.962,1.6,-0.6,61,0.0,0.0,0.0,0.3,0.3,-0.1,11.2,34.0,18.1,00:00:52,4.0,0,--.--,180,--.--,15,0000:00:00,0,0,0,48.33,0.27,47,--.--,99,--.--,--:--:--,0,13.05,12:23:14,29/10/21,--.--,--.--,--.--,--.--,--.--,--.--,--.--,--.--,--.--,--.--,--.--,--.--,0,0.000,0.000,0.000,0.000,0.000,0.000,0.000,0.000,0.000,0.000,0.000,0.000,false,false,false,false,false,false,false,false,false,false,false,false,--.--,--.--,--.--,--.--,--.--,--.--,--.--,--.--,11.2552454,75.8292471,43PEN 90514 44330,0.6,1.0,332.8,4,19,--.--,--.--,--.--,--.--,--.--,--.--,47.14,--.--,--.--,112,0,0.9,1.1,2.0,0,0,0,--.--,--.--,--.--
2021-10-29 12:23:15.961,0.6,-1.3,36,0.0,0.0,0.0,0.2,0.3,-0.1,11.2,34.0,18.1,00:00:53,3.9,0,--.--,176,--.--,15,0000:00:00,0,0,0,48.40,0.35,47,--.--,99,--.--,--:--:--,0,16.94,12:23:15,29/10/21,--.--,--.--,--.--,--.--,--.--,--.--,--.--,--.--,--.--,--.--,--.--,--.--,0,0.000,0.000,0.000,0.000,0.000,0.000,0.000,0.000,0.000,0.000,0.000,0.000,false,false,false,false,false,false,false,false,false,false,false,false,--.--,--.--,--.--,--.--,--.--,--.--,--.--,--.--,11.2552461,75.8292431,43PEN 90513 44330,0.6,1.0,290.7,4,19,--.--,--.--,--.--,--.--,--.--,--.--,47.12,--.--,--.--,112,0,1.3,1.4,3.0,0,0,0,--.--,--.--,--.--
2021-10-29 12:23:16.961,-1.7,-1.3,18,0.0,0.0,0.0,0.2,0.3,-0.1,11.2,34.0,18.1,00:00:54,3.8,0,--.--,177,--.--,15,0000:00:00,0,0,0,48.41,0.19,47,--.--,99,--.--,--:--:--,0,9.20,12:23:16,29/10/21,--.--,--.--,--.--,--.--,--.--,--.--,--.--,--.--,--.--,--.--,--.--,--.--,0,0.000,0.000,0.000,0.000,0.000,0.000,0.000,0.000,0.000,0.000,0.000,0.000,false,false,false,false,false,false,false,false,false,false,false,false,--.--,--.--,--.--,--.--,--.--,--.--,--.--,--.--,11.2552433,75.8292424,43PEN 90513 44329,0.6,1.0,225.3,4,18,--.--,--.--,--.--,--.--,--.--,--.--,47.10,--.--,--.--,112,0,1.0,1.5,2.4,0,0,0,--.--,--.--,--.--
2021-10-29 12:23:17.962,-1.8,-1.1,12,0.0,0.0,0.0,0.2,0.1,-0.0,11.2,34.0,18.1,00:00:55,3.7,0,--.--,176,--.--,15,0000:00:00,0,0,0,48.45,0.35,47,--.--,99,--.--,--:--:--,0,16.96,12:23:17,29/10/21,--.--,--.--,--.--,--.--,--.--,--.--,--.--,--.--,--.--,--.--,--.--,--.--,0,0.000,0.000,0.000,0.000,0.000,0.000,0.000,0.000,0.000,0.000,0.000,0.000,false,false,false,false,false,false,false,false,false,false,false,false,--.--,--.--,--.--,--.--,--.--,--.--,--.--,--.--,11.2552411,75.8292430,43PEN 90513 44329,0.6,1.0,225.3,4,19,--.--,--.--,--.--,--.--,--.--,--.--,47.08,--.--,--.--,112,0,1.1,1.2,2.7,0,0,0,--.--,--.--,--.--
2021-10-29 12:23:18.963,-1.2,0.1,3,0.0,0.0,0.0,0.2,0.3,-0.1,11.1,34.0,18.1,00:00:56,3.7,0,--.--,178,--.--,13,0000:00:00,0,0,0,48.48,0.31,47,--.--,99,--.--,--:--:--,0,15.03,12:23:18,29/10/21,--.--,--.--,--.--,--.--,--.--,--.--,--.--,--.--,--.--,--.--,--.--,--.--,0,0.000,0.000,0.000,0.000,0.000,0.000,0.000,0.000,0.000,0.000,0.000,0.000,false,false,false,false,false,false,false,false,false,false,false,false,--.--,--.--,--.--,--.--,--.--,--.--,--.--,--.--,11.2552417,75.8292446,43PEN 90513 44329,0.6,1.0,154.4,4,18,--.--,--.--,--.--,--.--,--.--,--.--,47.06,--.--,--.--,112,0,1.6,1.6,3.5,0,0,0,--.--,--.--,--.--
2021-10-29 12:23:19.962,-3.3,0.0,340,0.0,0.0,0.0,0.1,0.3,-0.3,11.0,33.8,18.1,00:00:57,3.9,0,--.--,181,--.--,14,0000:00:00,0,0,0,48.49,0.32,47,--.--,99,--.--,--:--:--,0,15.52,12:23:19,29/10/21,--.--,--.--,--.--,--.--,--.--,--.--,--.--,--.--,--.--,--.--,--.--,--.--,0,0.000,0.000,0.000,0.000,0.000,0.000,0.000,0.000,0.000,0.000,0.000,0.000,false,false,false,false,false,false,false,false,false,false,false,false,--.--,--.--,--.--,--.--,--.--,--.--,--.--,--.--,11.2552431,75.8292480,43PEN 90514 44329,0.6,1.0,76.2,4,19,--.--,--.--,--.--,--.--,--.--,--.--,47.04,--.--,--.--,112,0,1.4,1.9,3.0,0,0,0,--.--,--.--,--.--
2021-10-29 12:23:20.964,-3.3,0.2,332,0.0,0.0,0.0,0.1,0.3,-0.7,10.7,33.5,18.1,00:00:58,3.9,0,--.--,182,--.--,15,0000:00:00,0,0,0,48.52,0.31,47,--.--,99,--.--,--:--:--,0,15.04,12:23:20,29/10/21,--.--,--.--,--.--,--.--,--.--,--.--,--.--,--.--,--.--,--.--,--.--,--.--,0,0.000,0.000,0.000,0.000,0.000,0.000,0.000,0.000,0.000,0.000,0.000,0.000,false,false,false,false,false,false,false,false,false,false,false,false,--.--,--.--,--.--,--.--,--.--,--.--,--.--,--.--,11.2552431,75.8292478,43PEN 90514 44329,0.6,1.0,76.2,4,19,--.--,--.--,--.--,--.--,--.--,--.--,47.03,--.--,--.--,112,0,1.1,1.9,2.5,0,0,0,--.--,--.--,--.--
2021-10-29 12:23:21.961,-1.3,0.7,324,0.0,0.0,0.0,0.1,0.2,-0.7,10.0,32.8,18.1,00:00:59,3.9,0,--.--,178,--.--,14,0000:00:00,0,0,0,48.46,0.31,48,--.--,99,--.--,--:--:--,0,15.02,12:23:21,29/10/21,--.--,--.--,--.--,--.--,--.--,--.--,--.--,--.--,--.--,--.--,--.--,--.--,0,0.000,0.000,0.000,0.000,0.000,0.000,0.000,0.000,0.000,0.000,0.000,0.000,false,false,false,false,false,false,false,false,false,false,false,false,--.--,--.--,--.--,--.--,--.--,--.--,--.--,--.--,11.2552434,75.8292450,43PEN 90514 44329,0.6,1.0,34.0,4,19,--.--,--.--,--.--,--.--,--.--,--.--,47.02,--.--,--.--,112,0,1.1,1.4,2.8,0,0,0,--.--,--.--,--.--
2021-10-29 12:23:22.961,-0.4,-0.4,316,0.0,0.0,0.0,0.1,0.2,-0.7,9.4,32.2,18.1,00:01:00,3.8,0,--.--,176,--.--,14,0000:00:00,0,0,0,48.48,0.31,48,--.--,99,--.--,--:--:--,0,15.03,12:23:22,29/10/21,--.--,--.--,--.--,--.--,--.--,--.--,--.--,--.--,--.--,--.--,--.--,--.--,0,0.000,0.000,0.000,0.000,0.000,0.000,0.000,0.000,0.000,0.000,0.000,0.000,false,false,false,false,false,false,false,false,false,false,false,false,--.--,--.--,--.--,--.--,--.--,--.--,--.--,--.--,11.2552416,75.8292439,43PEN 90513 44329,0.6,1.0,331.9,4,19,--.--,--.--,--.--,--.--,--.--,--.--,47.00,--.--,--.--,112,0,1.2,1.1,3.1,0,0,0,--.--,--.--,--.--
2021-10-29 12:23:23.962,-1.2,-1.7,309,0.0,0.0,0.0,0.1,0.0,-0.7,8.9,31.7,18.1,00:01:01,3.7,0,--.--,176,--.--,15,0000:00:00,0,0,0,48.43,0.30,48,--.--,99,--.--,--:--:--,0,14.53,12:23:23,29/10/21,--.--,--.--,--.--,--.--,--.--,--.--,--.--,--.--,--.--,--.--,--.--,--.--,0,0.000,0.000,0.000,0.000,0.000,0.000,0.000,0.000,0.000,0.000,0.000,0.000,false,false,false,false,false,false,false,false,false,false,false,false,--.--,--.--,--.--,--.--,--.--,--.--,--.--,--.--,11.2552393,75.8292453,43PEN 90514 44329,0.6,1.0,331.9,4,18,--.--,--.--,--.--,--.--,--.--,--.--,46.98,--.--,--.--,112,0,1.1,0.9,3.0,0,0,0,--.--,--.--,--.--
2021-10-29 12:23:24.962,-2.5,-1.1,303,0.0,0.0,0.0,0.2,0.1,-0.7,8.0,30.8,18.1,00:01:02,3.7,0,--.--,179,--.--,15,0000:00:00,0,0,0,48.46,0.31,48,--.--,99,--.--,--:--:--,0,15.02,12:23:24,29/10/21,--.--,--.--,--.--,--.--,--.--,--.--,--.--,--.--,--.--,--.--,--.--,--.--,0,0.000,0.000,0.000,0.000,0.000,0.000,0.000,0.000,0.000,0.000,0.000,0.000,false,false,false,false,false,false,false,false,false,false,false,false,--.--,--.--,--.--,--.--,--.--,--.--,--.--,--.--,11.2552388,75.8292471,43PEN 90514 44329,0.6,1.0,331.9,4,19,--.--,--.--,--.--,--.--,--.--,--.--,46.97,--.--,--.--,112,0,1.2,1.4,3.0,0,0,0,--.--,--.--,--.--
2021-10-29 12:23:25.962,-1.9,-0.6,296,0.0,0.0,0.0,0.2,0.3,-0.8,7.3,30.1,18.1,00:01:03,3.7,0,--.--,180,--.--,14,0000:00:00,0,0,0,48.48,0.31,48,--.--,99,--.--,--:--:--,0,15.03,12:23:25,29/10/21,--.--,--.--,--.--,--.--,--.--,--.--,--.--,--.--,--.--,--.--,--.--,--.--,0,0.000,0.000,0.000,0.000,0.000,0.000,0.000,0.000,0.000,0.000,0.000,0.000,false,false,false,false,false,false,false,false,false,false,false,false,--.--,--.--,--.--,--.--,--.--,--.--,--.--,--.--,11.2552401,75.8292484,43PEN 90514 44329,0.6,1.0,331.9,4,19,--.--,--.--,--.--,--.--,--.--,--.--,46.96,--.--,--.--,112,0,1.1,1.1,3.4,0,0,0,--.--,--.--,--.--
2021-10-29 12:23:26.961,-1.0,1.0,290,0.0,0.0,0.0,0.2,0.2,-0.9,6.5,29.3,18.1,00:01:04,3.7,0,--.--,177,--.--,15,0000:00:00,0,0,0,48.42,0.28,48,--.--,99,--.--,--:--:--,0,13.56,12:23:26,29/10/21,--.--,--.--,--.--,--.--,--.--,--.--,--.--,--.--,--.--,--.--,--.--,--.--,0,0.000,0.000,0.000,0.000,0.000,0.000,0.000,0.000,0.000,0.000,0.000,0.000,false,false,false,false,false,false,false,false,false,false,false,false,--.--,--.--,--.--,--.--,--.--,--.--,--.--,--.--,11.2552400,75.8292461,43PEN 90514 44329,0.6,1.0,301.2,4,19,--.--,--.--,--.--,--.--,--.--,--.--,46.94,--.--,--.--,112,0,1.2,1.4,3.7,0,0,0,--.--,--.--,--.--
2021-10-29 12:23:27.962,-2.9,0.5,285,0.0,0.0,0.0,0.1,0.1,-0.9,5.7,28.5,18.1,00:01:05,3.8,0,--.--,177,--.--,14,0000:00:00,0,0,0,48.45,0.33,48,--.--,99,--.--,--:--:--,0,15.99,12:23:27,29/10/21,--.--,--.--,--.--,--.--,--.--,--.--,--.--,--.--,--.--,--.--,--.--,--.--,0,0.000,0.000,0.000,0.000,0.000,0.000,0.000,0.000,0.000,0.000,0.000,0.000,false,false,false,false,false,false,false,false,false,false,false,false,--.--,--.--,--.--,--.--,--.--,--.--,--.--,--.--,11.2552418,75.8292448,43PEN 90513 44329,0.6,1.0,301.2,4,19,--.--,--.--,--.--,--.--,--.--,--.--,46.93,--.--,--.--,112,0,0.9,1.3,3.4,0,0,0,--.--,--.--,--.--
2021-10-29 12:23:28.963,-1.8,0.0,285,0.0,0.0,0.0,0.1,0.1,-0.9,4.9,27.7,18.1,00:01:06,3.8,0,--.--,177,--.--,14,0000:00:00,0,0,0,48.41,0.25,48,--.--,99,--.--,--:--:--,0,12.10,12:23:28,29/10/21,--.--,--.--,--.--,--.--,--.--,--.--,--.--,--.--,--.--,--.--,--.--,--.--,0,0.000,0.000,0.000,0.000,0.000,0.000,0.000,0.000,0.000,0.000,0.000,0.000,false,false,false,false,false,false,false,false,false,false,false,false,--.--,--.--,--.--,--.--,--.--,--.--,--.--,--.--,11.2552412,75.8292438,43PEN 90513 44329,0.6,1.0,301.2,4,19,--.--,--.--,--.--,--.--,--.--,--.--,46.92,--.--,--.--,112,0,1.0,1.2,2.9,0,0,0,--.--,--.--,--.--
2021-10-29 12:23:29.962,-0.0,-1.0,284,0.0,0.0,0.0,0.1,0.2,-0.9,4.0,26.8,18.1,00:01:07,3.6,0,--.--,178,--.--,15,0000:00:00,0,0,0,48.32,0.18,48,--.--,99,--.--,--:--:--,0,8.70,12:23:29,29/10/21,--.--,--.--,--.--,--.--,--.--,--.--,--.--,--.--,--.--,--.--,--.--,--.--,0,0.000,0.000,0.000,0.000,0.000,0.000,0.000,0.000,0.000,0.000,0.000,0.000,false,false,false,false,false,false,false,false,false,false,false,false,--.--,--.--,--.--,--.--,--.--,--.--,--.--,--.--,11.2552405,75.8292440,43PEN 90513 44329,0.6,1.0,301.2,4,19,--.--,--.--,--.--,--.--,--.--,--.--,46.90,--.--,--.--,112,0,1.2,1.7,3.2,0,0,0,--.--,--.--,--.--
2021-10-29 12:23:30.961,-2.2,-1.5,281,0.0,0.0,0.0,0.2,0.1,-0.0,3.6,26.4,18.1,00:01:08,3.6,0,--.--,179,--.--,14,0000:00:00,0,0,0,48.33,0.23,48,--.--,99,--.--,--:--:--,0,11.12,12:23:30,29/10/21,--.--,--.--,--.--,--.--,--.--,--.--,--.--,--.--,--.--,--.--,--.--,--.--,0,0.000,0.000,0.000,0.000,0.000,0.000,0.000,0.000,0.000,0.000,0.000,0.000,false,false,false,false,false,false,false,false,false,false,false,false,--.--,--.--,--.--,--.--,--.--,--.--,--.--,--.--,11.2552392,75.8292473,43PEN 90514 44329,0.6,1.0,301.2,4,18,--.--,--.--,--.--,--.--,--.--,--.--,46.89,--.--,--.--,112,0,1.4,1.6,3.0,0,0,0,--.--,--.--,--.--
2021-10-29 12:23:31.960,-1.1,-1.4,287,0.0,0.0,0.0,0.2,0.1,-0.1,3.6,26.4,18.1,00:01:09,3.6,0,--.--,180,--.--,15,0000:00:00,0,0,0,48.38,0.29,48,--.--,99,--.--,--:--:--,0,14.03,12:23:31,29/10/21,--.--,--.--,--.--,--.--,--.--,--.--,--.--,--.--,--.--,--.--,--.--,--.--,0,0.000,0.000,0.000,0.000,0.000,0.000,0.000,0.000,0.000,0.000,0.000,0.000,false,false,false,false,false,false,false,false,false,false,false,false,--.--,--.--,--.--,--.--,--.--,--.--,--.--,--.--,11.2552382,75.8292492,43PEN 90514 44329,0.6,1.0,301.2,4,18,--.--,--.--,--.--,--.--,--.--,--.--,46.88,--.--,--.--,112,0,0.7,0.7,1.6,0,0,0,--.--,--.--,--.--
2021-10-29 12:23:32.963,-1.5,-1.5,299,0.0,0.0,0.0,0.3,0.2,-0.0,3.6,26.4,18.1,00:01:10,3.5,0,--.--,181,--.--,15,0000:00:00,0,0,0,48.38,0.30,48,--.--,99,--.--,--:--:--,0,14.51,12:23:32,29/10/21,--.--,--.--,--.--,--.--,--.--,--.--,--.--,--.--,--.--,--.--,--.--,--.--,0,0.000,0.000,0.000,0.000,0.000,0.000,0.000,0.000,0.000,0.000,0.000,0.000,false,false,false,false,false,false,false,false,false,false,false,false,--.--,--.--,--.--,--.--,--.--,--.--,--.--,--.--,11.2552375,75.8292498,43PEN 90514 44329,0.6,1.0,301.2,4,18,--.--,--.--,--.--,--.--,--.--,--.--,46.86,--.--,--.--,112,0,1.1,1.2,2.9,0,0,0,--.--,--.--,--.--
2021-10-29 12:23:33.961,-0.9,-1.0,297,0.0,0.0,0.0,0.3,0.2,0.0,3.5,26.4,18.1,00:01:11,3.5,0,--.--,180,--.--,15,0000:00:00,0,0,0,48.35,0.30,48,--.--,99,--.--,--:--:--,0,14.51,12:23:33,29/10/21,--.--,--.--,--.--,--.--,--.--,--.--,--.--,--.--,--.--,--.--,--.--,--.--,0,0.000,0.000,0.000,0.000,0.000,0.000,0.000,0.000,0.000,0.000,0.000,0.000,false,false,false,false,false,false,false,false,false,false,false,false,--.--,--.--,--.--,--.--,--.--,--.--,--.--,--.--,11.2552363,75.8292486,43PEN 90514 44329,0.6,1.0,301.2,4,18,--.--,--.--,--.--,--.--,--.--,--.--,46.85,--.--,--.--,112,0,1.3,1.5,3.1,0,0,0,--.--,--.--,--.--
2021-10-29 12:23:34.961,-1.2,-0.5,294,0.0,0.0,0.0,0.3,0.3,-0.0,3.6,26.4,18.1,00:01:12,3.5,0,--.--,178,--.--,15,0000:00:00,0,0,0,48.29,0.25,49,--.--,99,--.--,--:--:--,0,12.07,12:23:34,29/10/21,--.--,--.--,--.--,--.--,--.--,--.--,--.--,--.--,--.--,--.--,--.--,--.--,0,0.000,0.000,0.000,0.000,0.000,0.000,0.000,0.000,0.000,0.000,0.000,0.000,false,false,false,false,false,false,false,false,false,false,false,false,--.--,--.--,--.--,--.--,--.--,--.--,--.--,--.--,11.2552370,75.8292471,43PEN 90514 44329,0.6,1.0,301.2,4,17,--.--,--.--,--.--,--.--,--.--,--.--,46.84,--.--,--.--,112,0,1.8,2.0,3.7,0,0,0,--.--,--.--,--.--
2021-10-29 12:23:35.961,5.4,-0.2,294,0.0,0.0,0.0,0.7,0.3,0.0,3.5,26.4,18.1,00:01:13,3.8,0,--.--,180,--.--,16,0000:00:00,0,0,0,48.27,0.23,49,--.--,99,--.--,--:--:--,0,11.10,12:23:35,29/10/21,--.--,--.--,--.--,--.--,--.--,--.--,--.--,--.--,--.--,--.--,--.--,--.--,0,0.000,0.000,0.000,0.000,0.000,0.000,0.000,0.000,0.000,0.000,0.000,0.000,false,false,false,false,false,false,false,false,false,false,false,false,--.--,--.--,--.--,--.--,--.--,--.--,--.--,--.--,11.2552397,75.8292476,43PEN 90514 44329,0.6,1.0,301.2,4,18,--.--,--.--,--.--,--.--,--.--,--.--,46.82,--.--,--.--,112,0,1.6,1.8,3.0,0,0,0,--.--,--.--,--.--
2021-10-29 12:23:36.961,6.0,0.4,294,0.0,0.0,0.0,1.9,1.5,-0.0,3.6,26.4,20.3,00:01:14,4.9,0,--.--,187,--.--,16,0000:00:00,0,0,0,48.29,0.30,49,--.--,99,--.--,--:--:--,0,14.49,12:23:36,29/10/21,--.--,--.--,--.--,--.--,--.--,--.--,--.--,--.--,--.--,--.--,--.--,--.--,0,0.000,0.000,0.000,0.000,0.000,0.000,0.000,0.000,0.000,0.000,0.000,0.000,false,false,false,false,false,false,false,false,false,false,false,false,--.--,--.--,--.--,--.--,--.--,--.--,--.--,--.--,11.2552459,75.8292508,43PEN 90514 44330,0.6,1.0,24.1,4,18,--.--,--.--,--.--,--.--,--.--,--.--,46.81,--.--,--.--,112,0,1.4,1.6,2.7,0,0,0,--.--,--.--,--.--
2021-10-29 12:23:37.960,-6.5,-1.8,293,0.0,0.0,0.0,1.8,1.8,-0.1,3.6,26.4,22.3,00:01:15,6.8,0,--.--,194,--.--,15,0000:00:00,0,0,0,48.24,0.25,49,--.--,99,--.--,--:--:--,0,12.06,12:23:37,29/10/21,--.--,--.--,--.--,--.--,--.--,--.--,--.--,--.--,--.--,--.--,--.--,--.--,0,0.000,0.000,0.000,0.000,0.000,0.000,0.000,0.000,0.000,0.000,0.000,0.000,false,false,false,false,false,false,false,false,false,false,false,false,--.--,--.--,--.--,--.--,--.--,--.--,--.--,--.--,11.2552603,75.8292587,43PEN 90515 44331,0.6,1.0,32.0,4,17,--.--,--.--,--.--,--.--,--.--,--.--,46.80,--.--,--.--,112,0,1.2,1.8,2.5,0,0,0,--.--,--.--,--.--
2021-10-29 12:23:38.960,-8.7,0.3,299,0.0,0.0,0.0,0.9,0.9,-0.1,3.6,26.4,22.3,00:01:16,7.7,0,--.--,196,--.--,14,0000:00:00,0,0,0,48.24,0.24,49,--.--,99,--.--,--:--:--,0,11.58,12:23:38,29/10/21,--.--,--.--,--.--,--.--,--.--,--.--,--.--,--.--,--.--,--.--,--.--,--.--,0,0.000,0.000,0.000,0.000,0.000,0.000,0.000,0.000,0.000,0.000,0.000,0.000,false,false,false,false,false,false,false,false,false,false,false,false,--.--,--.--,--.--,--.--,--.--,--.--,--.--,--.--,11.2552731,75.8292669,43PEN 90516 44333,0.6,1.0,26.6,4,17,--.--,--.--,--.--,--.--,--.--,--.--,46.78,--.--,--.--,112,0,1.2,1.3,2.8,0,0,0,--.--,--.--,--.--
2021-10-29 12:23:39.963,9.8,2.2,299,0.0,0.0,0.0,1.1,0.5,-0.1,3.6,26.5,22.3,00:01:17,8.5,0,--.--,198,--.--,15,0000:00:00,0,0,0,48.19,0.21,49,--.--,99,--.--,--:--:--,0,10.12,12:23:39,29/10/21,--.--,--.--,--.--,--.--,--.--,--.--,--.--,--.--,--.--,--.--,--.--,--.--,0,0.000,0.000,0.000,0.000,0.000,0.000,0.000,0.000,0.000,0.000,0.000,0.000,false,false,false,false,false,false,false,false,false,false,false,false,--.--,--.--,--.--,--.--,--.--,--.--,--.--,--.--,11.2552782,75.8292699,43PEN 90516 44333,0.6,1.1,26.2,4,17,--.--,--.--,--.--,--.--,--.--,--.--,46.77,--.--,--.--,112,0,1.3,1.3,3.2,0,0,0,--.--,--.--,--.--
2021-10-29 12:23:40.962,-1.4,-1.5,295,0.0,0.0,0.0,1.3,1.5,-0.1,3.7,26.5,24.6,00:01:18,9.7,0,--.--,201,--.--,15,0000:00:00,0,0,0,48.31,0.30,49,--.--,99,--.--,--:--:--,0,14.49,12:23:40,29/10/21,--.--,--.--,--.--,--.--,--.--,--.--,--.--,--.--,--.--,--.--,--.--,--.--,0,0.000,0.000,0.000,0.000,0.000,0.000,0.000,0.000,0.000,0.000,0.000,0.000,false,false,false,false,false,false,false,false,false,false,false,false,--.--,--.--,--.--,--.--,--.--,--.--,--.--,--.--,11.2552846,75.8292755,43PEN 90517 44334,0.6,1.0,40.5,4,17,--.--,--.--,--.--,--.--,--.--,--.--,46.76,--.--,--.--,112,0,1.5,2.2,3.4,0,0,0,--.--,--.--,--.--
2021-10-29 12:23:41.961,-4.5,-0.0,296,0.0,0.0,0.0,1.3,1.2,-0.1,3.7,26.5,24.6,00:01:19,10.5,0,--.--,202,--.--,12,0000:00:00,0,0,0,48.19,0.23,49,--.--,99,--.--,--:--:--,0,11.08,12:23:41,29/10/21,--.--,--.--,--.--,--.--,--.--,--.--,--.--,--.--,--.--,--.--,--.--,--.--,0,0.000,0.000,0.000,0.000,0.000,0.000,0.000,0.000,0.000,0.000,0.000,0.000,false,false,false,false,false,false,false,false,false,false,false,false,--.--,--.--,--.--,--.--,--.--,--.--,--.--,--.--,11.2552942,75.8292825,43PEN 90518 44335,0.6,1.1,33.4,4,16,--.--,--.--,--.--,--.--,--.--,--.--,46.75,--.--,--.--,112,0,1.4,2.0,2.8,0,0,0,--.--,--.--,--.--
2021-10-29 12:23:42.961,-7.5,-0.6,297,0.0,0.0,0.0,0.5,0.7,-0.1,3.6,26.4,26.7,00:01:20,11.8,0,--.--,203,--.--,15,0000:00:00,0,0,0,48.24,0.21,49,--.--,99,--.--,--:--:--,0,10.13,12:23:42,29/10/21,--.--,--.--,--.--,--.--,--.--,--.--,--.--,--.--,--.--,--.--,--.--,--.--,0,0.000,0.000,0.000,0.000,0.000,0.000,0.000,0.000,0.000,0.000,0.000,0.000,false,false,false,false,false,false,false,false,false,false,false,false,--.--,--.--,--.--,--.--,--.--,--.--,--.--,--.--,11.2553035,75.8292884,43PEN 90518 44336,0.6,1.1,30.9,4,17,--.--,--.--,--.--,--.--,--.--,--.--,46.73,--.--,--.--,112,0,1.3,1.5,3.1,0,0,0,--.--,--.--,--.--
2021-10-29 12:23:43.961,-1.8,0.3,298,0.0,0.0,0.0,0.0,0.1,-0.0,3.6,26.4,26.7,00:01:21,12.0,0,--.--,203,--.--,14,0000:00:00,0,0,0,48.27,0.28,49,--.--,99,--.--,--:--:--,0,13.52,12:23:43,29/10/21,--.--,--.--,--.--,--.--,--.--,--.--,--.--,--.--,--.--,--.--,--.--,--.--,0,0.000,0.000,0.000,0.000,0.000,0.000,0.000,0.000,0.000,0.000,0.000,0.000,false,false,false,false,false,false,false,false,false,false,false,false,--.--,--.--,--.--,--.--,--.--,--.--,--.--,--.--,11.2553073,75.8292907,43PEN 90518 44336,0.6,1.1,29.1,4,16,--.--,--.--,--.--,--.--,--.--,--.--,46.72,--.--,--.--,112,0,1.7,1.8,3.5,0,0,0,--.--,--.--,--.--
2021-10-29 12:23:44.962,0.1,-0.0,296,0.0,0.0,0.0,0.0,0.2,-0.1,3.6,26.4,26.7,00:01:22,11.9,0,--.--,203,--.--,15,0000:00:00,0,0,0,48.24,0.28,49,--.--,99,--.--,--:--:--,0,13.51,12:23:44,29/10/21,--.--,--.--,--.--,--.--,--.--,--.--,--.--,--.--,--.--,--.--,--.--,--.--,0,0.000,0.000,0.000,0.000,0.000,0.000,0.000,0.000,0.000,0.000,0.000,0.000,false,false,false,false,false,false,false,false,false,false,false,false,--.--,--.--,--.--,--.--,--.--,--.--,--.--,--.--,11.2553063,75.8292898,43PEN 90518 44336,0.6,1.1,29.1,4,16,--.--,--.--,--.--,--.--,--.--,--.--,46.70,--.--,--.--,112,0,1.5,1.7,3.4,0,0,0,--.--,--.--,--.--
2021-10-29 12:23:45.961,0.3,-0.3,324,0.0,0.0,0.0,0.1,0.1,-0.0,3.6,26.4,26.7,00:01:23,11.8,0,--.--,203,--.--,15,0000:00:00,0,0,0,48.21,0.26,49,--.--,99,--.--,--:--:--,0,12.53,12:23:45,29/10/21,--.--,--.--,--.--,--.--,--.--,--.--,--.--,--.--,--.--,--.--,--.--,--.--,0,0.000,0.000,0.000,0.000,0.000,0.000,0.000,0.000,0.000,0.000,0.000,0.000,false,false,false,false,false,false,false,false,false,false,false,false,--.--,--.--,--.--,--.--,--.--,--.--,--.--,--.--,11.2553040,75.8292873,43PEN 90518 44336,0.6,1.1,29.1,4,17,--.--,--.--,--.--,--.--,--.--,--.--,46.69,--.--,--.--,112,0,1.3,2.3,2.3,0,0,0,--.--,--.--,--.--
2021-10-29 12:23:46.962,-0.1,-1.4,7,0.0,0.0,0.0,0.2,0.1,-0.0,3.6,26.4,26.7,00:01:24,11.8,0,--.--,203,--.--,14,0000:00:00,0,0,0,48.20,0.25,49,--.--,99,--.--,--:--:--,0,12.05,12:23:46,29/10/21,--.--,--.--,--.--,--.--,--.--,--.--,--.--,--.--,--.--,--.--,--.--,--.--,0,0.000,0.000,0.000,0.000,0.000,0.000,0.000,0.000,0.000,0.000,0.000,0.000,false,false,false,false,false,false,false,false,false,false,false,false,--.--,--.--,--.--,--.--,--.--,--.--,--.--,--.--,11.2553035,75.8292870,43PEN 90518 44336,0.6,1.0,29.1,4,18,--.--,--.--,--.--,--.--,--.--,--.--,46.68,--.--,--.--,112,0,1.3,2.7,2.3,0,0,0,--.--,--.--,--.--
2021-10-29 12:23:47.961,-0.7,-2.1,45,0.0,0.0,0.0,0.3,0.2,-0.0,3.6,26.4,26.7,00:01:25,11.7,0,--.--,203,--.--,14,0000:00:00,0,0,0,48.22,0.22,49,--.--,99,--.--,--:--:--,0,10.61,12:23:47,29/10/21,--.--,--.--,--.--,--.--,--.--,--.--,--.--,--.--,--.--,--.--,--.--,--.--,0,0.000,0.000,0.000,0.000,0.000,0.000,0.000,0.000,0.000,0.000,0.000,0.000,false,false,false,false,false,false,false,false,false,false,false,false,--.--,--.--,--.--,--.--,--.--,--.--,--.--,--.--,11.2553028,75.8292873,43PEN 90518 44336,0.6,1.0,29.1,4,18,--.--,--.--,--.--,--.--,--.--,--.--,46.66,--.--,--.--,112,0,0.6,1.0,2.5,0,0,0,--.--,--.--,--.--
2021-10-29 12:23:48.961,0.2,-1.1,17,0.0,0.0,0.0,0.3,0.4,-0.1,3.6,26.4,26.7,00:01:26,11.9,0,--.--,203,--.--,15,0000:00:00,0,0,0,48.20,0.23,50,--.--,99,--.--,--:--:--,0,11.09,12:23:48,29/10/21,--.--,--.--,--.--,--.--,--.--,--.--,--.--,--.--,--.--,--.--,--.--,--.--,0,0.000,0.000,0.000,0.000,0.000,0.000,0.000,0.000,0.000,0.000,0.000,0.000,false,false,false,false,false,false,false,false,false,false,false,false,--.--,--.--,--.--,--.--,--.--,--.--,--.--,--.--,11.2553070,75.8292884,43PEN 90518 44336,0.6,1.0,29.1,4,17,--.--,--.--,--.--,--.--,--.--,--.--,46.65,--.--,--.--,112,0,1.0,1.4,2.8,0,0,0,--.--,--.--,--.--
2021-10-29 12:23:49.961,-0.6,4.9,14,0.0,0.0,0.0,0.1,0.4,-0.0,3.6,26.4,26.7,00:01:27,12.3,0,--.--,204,--.--,15,0000:00:00,0,0,0,48.12,0.24,50,--.--,99,--.--,--:--:--,0,11.55,12:23:49,29/10/21,--.--,--.--,--.--,--.--,--.--,--.--,--.--,--.--,--.--,--.--,--.--,--.--,0,0.000,0.000,0.000,0.000,0.000,0.000,0.000,0.000,0.000,0.000,0.000,0.000,false,false,false,false,false,false,false,false,false,false,false,false,--.--,--.--,--.--,--.--,--.--,--.--,--.--,--.--,11.2553107,75.8292906,43PEN 90518 44337,0.6,1.0,33.2,4,18,--.--,--.--,--.--,--.--,--.--,--.--,46.64,--.--,--.--,112,0,1.7,3.1,2.4,0,0,0,--.--,--.--,--.--
2021-10-29 12:23:50.962,0.4,7.4,19,0.0,0.0,0.0,1.3,1.1,-0.0,3.6,26.4,26.7,00:01:28,11.9,0,--.--,203,--.--,15,0000:00:00,0,0,0,48.14,0.17,50,--.--,99,--.--,--:--:--,0,8.18,12:23:50,29/10/21,--.--,--.--,--.--,--.--,--.--,--.--,--.--,--.--,--.--,--.--,--.--,--.--,0,0.000,0.000,0.000,0.000,0.000,0.000,0.000,0.000,0.000,0.000,0.000,0.000,false,false,false,false,false,false,false,false,false,false,false,false,--.--,--.--,--.--,--.--,--.--,--.--,--.--,--.--,11.2553116,75.8292907,43PEN 90518 44337,0.6,1.0,138.6,4,17,--.--,--.--,--.--,--.--,--.--,--.--,46.62,--.--,--.--,112,0,1.4,2.0,3.4,0,0,0,--.--,--.--,--.--
2021-10-29 12:23:51.961,1.5,4.2,18,0.0,0.0,0.0,2.0,1.8,-0.1,3.6,26.4,26.7,00:01:29,10.3,0,--.--,204,--.--,15,0000:00:00,0,0,0,48.14,0.18,50,--.--,99,--.--,--:--:--,0,8.66,12:23:51,29/10/21,--.--,--.--,--.--,--.--,--.--,--.--,--.--,--.--,--.--,--.--,--.--,--.--,0,0.000,0.000,0.000,0.000,0.000,0.000,0.000,0.000,0.000,0.000,0.000,0.000,false,false,false,false,false,false,false,false,false,false,false,false,--.--,--.--,--.--,--.--,--.--,--.--,--.--,--.--,11.2553024,75.8292858,43PEN 90518 44336,0.6,1.0,202.9,4,17,--.--,--.--,--.--,--.--,--.--,--.--,46.60,--.--,--.--,112,0,1.4,3.7,3.0,0,0,0,--.--,--.--,--.--
2021-10-29 12:23:52.962,0.8,2.1,14,0.0,0.0,0.0,2.3,2.2,-0.0,3.6,26.4,28.7,00:01:30,8.3,0,--.--,205,--.--,15,0000:00:00,0,0,0,48.20,0.30,50,--.--,99,--.--,--:--:--,0,14.46,12:23:52,29/10/21,--.--,--.--,--.--,--.--,--.--,--.--,--.--,--.--,--.--,--.--,--.--,--.--,0,0.000,0.000,0.000,0.000,0.000,0.000,0.000,0.000,0.000,0.000,0.000,0.000,false,false,false,false,false,false,false,false,false,false,false,false,--.--,--.--,--.--,--.--,--.--,--.--,--.--,--.--,11.2552863,75.8292788,43PEN 90517 44334,0.6,1.0,197.6,4,17,--.--,--.--,--.--,--.--,--.--,--.--,46.58,--.--,--.--,112,0,1.8,3.9,3.5,0,0,0,--.--,--.--,--.--
2021-10-29 12:23:53.961,2.3,-3.1,3,0.0,0.0,0.0,1.8,1.8,-0.1,3.6,26.4,30.9,00:01:31,6.1,0,--.--,207,--.--,15,0000:00:00,0,0,0,48.06,0.21,50,--.--,99,--.--,--:--:--,0,10.09,12:23:53,29/10/21,--.--,--.--,--.--,--.--,--.--,--.--,--.--,--.--,--.--,--.--,--.--,--.--,0,0.000,0.000,0.000,0.000,0.000,0.000,0.000,0.000,0.000,0.000,0.000,0.000,false,false,false,false,false,false,false,false,false,false,false,false,--.--,--.--,--.--,--.--,--.--,--.--,--.--,--.--,11.2552670,75.8292723,43PEN 90516 44332,0.6,1.0,192.9,4,18,--.--,--.--,--.--,--.--,--.--,--.--,46.56,--.--,--.--,112,0,1.7,3.7,3.5,0,0,0,--.--,--.--,--.--
2021-10-29 12:23:54.960,2.5,-7.5,357,0.0,0.0,0.0,1.1,1.3,-0.1,3.6,26.5,30.9,00:01:32,5.1,0,--.--,210,--.--,13,0000:00:00,0,0,0,48.14,0.23,50,--.--,99,--.--,--:--:--,0,11.07,12:23:54,29/10/21,--.--,--.--,--.--,--.--,--.--,--.--,--.--,--.--,--.--,--.--,--.--,--.--,0,0.000,0.000,0.000,0.000,0.000,0.000,0.000,0.000,0.000,0.000,0.000,0.000,false,false,false,false,false,false,false,false,false,false,false,false,--.--,--.--,--.--,--.--,--.--,--.--,--.--,--.--,11.2552526,75.8292693,43PEN 90516 44330,0.6,1.0,185.8,4,17,--.--,--.--,--.--,--.--,--.--,--.--,46.54,--.--,--.--,112,0,1.6,3.4,2.9,0,0,0,--.--,--.--,--.--
2021-10-29 12:23:55.961,-4.0,-0.1,4,0.0,0.0,0.0,0.6,0.6,-0.1,3.6,26.4,33.0,00:01:33,4.4,0,--.--,217,--.--,14,0000:00:00,0,0,0,48.04,0.25,50,--.--,99,--.--,--:--:--,0,12.01,12:23:55,29/10/21,--.--,--.--,--.--,--.--,--.--,--.--,--.--,--.--,--.--,--.--,--.--,--.--,0,0.000,0.000,0.000,0.000,0.000,0.000,0.000,0.000,0.000,0.000,0.000,0.000,false,false,false,false,false,false,false,false,false,false,false,false,--.--,--.--,--.--,--.--,--.--,--.--,--.--,--.--,11.2552442,75.8292694,43PEN 90516 44330,0.6,1.0,158.6,4,17,--.--,--.--,--.--,--.--,--.--,--.--,46.51,--.--,--.--,112,0,1.2,2.4,2.5,0,0,0,--.--,--.--,--.--
