Timestamp,roll,pitch,heading,rollRate,pitchRate,yawRate,groundSpeed,airSpeed,climbRate,altitudeRelative,altitudeAMSL,flightDistance,flightTime,distanceToHome,missionItemIndex,headingToNextWP,headingToHome,distanceToGCS,throttlePct,hobbs,battery0.id,battery0.batteryFunction,battery0.batteryType,battery0.voltage,battery0.current,battery0.mahConsumed,battery0.temperature,battery0.percentRemaining,battery0.timeRemaining,battery0.timeRemainingStr,battery0.chargeState,battery0.instantPower,clock.currentTime,clock.currentDate,distanceSensor.rotationNone,distanceSensor.rotationYaw45,distanceSensor.rotationYaw90,distanceSensor.rotationYaw135,distanceSensor.rotationYaw180,distanceSensor.rotationYaw225,distanceSensor.rotationYaw270,distanceSensor.rotationYaw315,distanceSensor.rotationPitch90,distanceSensor.rotationPitch270,distanceSensor.minDistance,distanceSensor.maxDistance,escStatus.index,escStatus.rpm1,escStatus.rpm2,escStatus.rpm3,escStatus.rpm4,escStatus.current1,escStatus.current2,escStatus.current3,escStatus.current4,escStatus.voltage1,escStatus.voltage2,escStatus.voltage3,escStatus.voltage4,estimatorStatus.goodAttitudeEsimate,estimatorStatus.goodHorizVelEstimate,estimatorStatus.goodVertVelEstimate,estimatorStatus.goodHorizPosRelEstimate,estimatorStatus.goodHorizPosAbsEstimate,estimatorStatus.goodVertPosAbsEstimate,estimatorStatus.goodVertPosAGLEstimate,estimatorStatus.goodConstPosModeEstimate,estimatorStatus.goodPredHorizPosRelEstimate,estimatorStatus.goodPredHorizPosAbsEstimate,estimatorStatus.gpsGlitch,estimatorStatus.accelError,estimatorStatus.velRatio,estimatorStatus.horizPosRatio,estimatorStatus.vertPosRatio,estimatorStatus.magRatio,estimatorStatus.haglRatio,estimatorStatus.tasRatio,estimatorStatus.horizPosAccuracy,estimatorStatus.vertPosAccuracy,gps.lat,gps.lon,gps.mgrs,gps.hdop,gps.vdop,gps.courseOverGround,gps.lock,gps.count,setpoint.roll,setpoint.pitch,setpoint.yaw,setpoint.rollRate,setpoint.pitchRate,setpoint.yawRate,temperature.temperature1,temperature.temperature2,temperature.temperature3,terrain.blocksPending,terrain.blocksLoaded,vibration.xAxis,vibration.yAxis,vibration.zAxis,vibration.clipCount1,vibration.clipCount2,vibration.clipCount3,wind.direction,wind.speed,wind.verticalSpeed
2021-12-22 11:50:07.768,1.4,-1.5,227,0.0,0.0,0.0,0.7,0.0,0.2,0.2,41.1,0.0,00:00:00,0.1,0,--.--,--.--,--.--,0,0000:00:00,0,0,0,25.17,0.01,6,--.--,99,--.--,--:--:--,0,0.25,11:50:07,12/22/2021,--.--,--.--,--.--,--.--,--.--,--.--,--.--,--.--,--.--,--.--,--.--,--.--,0,0.000,0.000,0.000,0.000,0.000,0.000,0.000,0.000,0.000,0.000,0.000,0.000,false,false,false,false,false,false,false,false,false,false,false,false,--.--,--.--,--.--,--.--,--.--,--.--,--.--,--.--,11.2558253,75.8293305,43PEN 90523 44394,0.8,1.1,114.5,3,15,--.--,--.--,--.--,--.--,--.--,--.--,47.99,--.--,--.--,56,0,0.0,0.0,0.0,0,0,0,--.--,--.--,--.--
2021-12-22 11:50:08.785,1.3,-1.5,227,0.0,0.0,0.0,0.7,0.0,0.2,0.2,41.1,0.0,00:00:01,0.1,0,--.--,--.--,--.--,0,0000:00:00,0,0,0,25.21,0.04,6,--.--,99,--.--,--:--:--,0,1.01,11:50:08,12/22/2021,--.--,--.--,--.--,--.--,--.--,--.--,--.--,--.--,--.--,--.--,--.--,--.--,0,0.000,0.000,0.000,0.000,0.000,0.000,0.000,0.000,0.000,0.000,0.000,0.000,false,false,false,false,false,false,false,false,false,false,false,false,--.--,--.--,--.--,--.--,--.--,--.--,--.--,--.--,11.2558251,75.8293311,43PEN 90523 44394,0.8,1.1,114.5,3,15,--.--,--.--,--.--,--.--,--.--,--.--,48.02,--.--,--.--,56,0,0.0,0.0,0.0,0,0,0,--.--,--.--,--.--
2021-12-22 11:50:09.779,1.3,-1.5,227,0.0,0.0,0.0,0.7,0.0,0.1,0.2,41.1,0.0,00:00:01,0.1,0,--.--,--.--,--.--,0,0000:00:00,0,0,0,25.17,0.22,6,--.--,99,--.--,--:--:--,0,5.54,11:50:09,12/22/2021,--.--,--.--,--.--,--.--,--.--,--.--,--.--,--.--,--.--,--.--,--.--,--.--,0,0.000,0.000,0.000,0.000,0.000,0.000,0.000,0.000,0.000,0.000,0.000,0.000,false,false,false,false,false,false,false,false,false,false,false,false,--.--,--.--,--.--,--.--,--.--,--.--,--.--,--.--,11.2558251,75.8293315,43PEN 90523 44394,0.8,1.1,114.5,3,15,--.--,--.--,--.--,--.--,--.--,--.--,48.08,--.--,--.--,56,0,0.8,1.2,2.0,0,0,0,--.--,--.--,--.--
2021-12-22 11:50:10.800,1.3,-1.5,227,0.0,0.0,0.0,0.7,0.1,0.1,0.2,41.1,0.0,00:00:03,0.2,0,--.--,--.--,--.--,0,0000:00:00,0,0,0,25.18,0.41,7,--.--,99,--.--,--:--:--,0,10.33,11:50:10,12/22/2021,--.--,--.--,--.--,--.--,--.--,--.--,--.--,--.--,--.--,--.--,--.--,--.--,0,0.000,0.000,0.000,0.000,0.000,0.000,0.000,0.000,0.000,0.000,0.000,0.000,false,false,false,false,false,false,false,false,false,false,false,false,--.--,--.--,--.--,--.--,--.--,--.--,--.--,--.--,11.2558247,75.8293324,43PEN 90523 44394,0.8,1.1,114.5,3,15,--.--,--.--,--.--,--.--,--.--,--.--,48.12,--.--,--.--,56,0,0.8,1.1,1.5,0,0,0,--.--,--.--,--.--
2021-12-22 11:50:11.796,1.3,-1.5,227,0.0,0.0,0.0,0.6,0.1,0.1,0.2,41.1,0.0,00:00:04,0.3,0,--.--,--.--,--.--,0,0000:00:00,0,0,0,25.18,0.22,7,--.--,99,--.--,--:--:--,0,5.54,11:50:11,12/22/2021,--.--,--.--,--.--,--.--,--.--,--.--,--.--,--.--,--.--,--.--,--.--,--.--,0,0.000,0.000,0.000,0.000,0.000,0.000,0.000,0.000,0.000,0.000,0.000,0.000,false,false,false,false,false,false,false,false,false,false,false,false,--.--,--.--,--.--,--.--,--.--,--.--,--.--,--.--,11.2558247,75.8293324,43PEN 90523 44394,0.8,1.1,114.5,3,15,--.--,--.--,--.--,--.--,--.--,--.--,48.12,--.--,--.--,56,0,0.7,1.3,1.9,0,0,0,--.--,--.--,--.--
2021-12-22 11:50:12.805,1.3,-1.5,227,0.0,0.0,0.0,0.6,0.0,0.0,0.2,41.1,0.0,00:00:05,0.4,0,--.--,--.--,--.--,0,0000:00:00,0,0,0,25.18,0.22,7,--.--,99,--.--,--:--:--,0,5.54,11:50:12,12/22/2021,--.--,--.--,--.--,--.--,--.--,--.--,--.--,--.--,--.--,--.--,--.--,--.--,0,0.000,0.000,0.000,0.000,0.000,0.000,0.000,0.000,0.000,0.000,0.000,0.000,false,false,false,false,false,false,false,false,false,false,false,false,--.--,--.--,--.--,--.--,--.--,--.--,--.--,--.--,11.2558240,75.8293337,43PEN 90523 44394,0.8,1.1,114.5,3,15,--.--,--.--,--.--,--.--,--.--,--.--,48.20,--.--,--.--,56,0,0.7,1.2,1.3,0,0,0,--.--,--.--,--.--
2021-12-22 11:50:13.815,1.4,-1.6,227,0.0,0.0,0.0,0.7,0.0,0.0,0.1,41.0,0.0,00:00:06,0.4,0,--.--,--.--,--.--,0,0000:00:00,0,0,0,25.18,0.48,7,--.--,99,--.--,--:--:--,0,12.09,11:50:13,12/22/2021,--.--,--.--,--.--,--.--,--.--,--.--,--.--,--.--,--.--,--.--,--.--,--.--,0,0.000,0.000,0.000,0.000,0.000,0.000,0.000,0.000,0.000,0.000,0.000,0.000,false,false,false,false,false,false,false,false,false,false,false,false,--.--,--.--,--.--,--.--,--.--,--.--,--.--,--.--,11.2558239,75.8293339,43PEN 90523 44394,0.8,1.1,114.5,3,15,--.--,--.--,--.--,--.--,--.--,--.--,48.22,--.--,--.--,56,0,1.0,1.3,1.6,0,0,0,--.--,--.--,--.--
2021-12-22 11:50:14.811,1.3,-1.5,227,0.0,0.0,0.0,0.7,0.0,0.0,0.1,41.0,0.0,00:00:07,0.5,0,--.--,--.--,--.--,0,0000:00:00,0,0,0,25.23,0.98,7,--.--,99,--.--,--:--:--,0,24.73,11:50:14,12/22/2021,--.--,--.--,--.--,--.--,--.--,--.--,--.--,--.--,--.--,--.--,--.--,--.--,0,0.000,0.000,0.000,0.000,0.000,0.000,0.000,0.000,0.000,0.000,0.000,0.000,false,false,false,false,false,false,false,false,false,false,false,false,--.--,--.--,--.--,--.--,--.--,--.--,--.--,--.--,11.2558238,75.8293346,43PEN 90523 44394,0.8,1.1,114.5,3,15,--.--,--.--,--.--,--.--,--.--,--.--,48.27,--.--,--.--,56,0,0.5,0.8,1.1,0,0,0,--.--,--.--,--.--
2021-12-22 11:50:15.816,1.4,-1.5,227,0.0,0.0,0.0,0.7,0.0,-0.0,0.1,41.0,0.0,00:00:08,0.6,0,--.--,--.--,--.--,0,0000:00:00,0,0,0,25.16,0.11,8,--.--,99,--.--,--:--:--,0,2.77,11:50:15,12/22/2021,--.--,--.--,--.--,--.--,--.--,--.--,--.--,--.--,--.--,--.--,--.--,--.--,0,0.000,0.000,0.000,0.000,0.000,0.000,0.000,0.000,0.000,0.000,0.000,0.000,false,false,false,false,false,false,false,false,false,false,false,false,--.--,--.--,--.--,--.--,--.--,--.--,--.--,--.--,11.2558236,75.8293349,43PEN 90523 44394,0.8,1.1,114.5,3,15,--.--,--.--,--.--,--.--,--.--,--.--,48.31,--.--,--.--,56,0,0.8,0.9,1.3,0,0,0,--.--,--.--,--.--
2021-12-22 11:50:16.810,1.4,-1.5,227,0.0,0.0,0.0,0.7,0.0,-0.0,0.1,41.0,0.0,00:00:09,0.6,0,--.--,--.--,--.--,0,0000:00:00,0,0,0,25.25,1.09,8,--.--,99,--.--,--:--:--,0,27.52,11:50:16,12/22/2021,--.--,--.--,--.--,--.--,--.--,--.--,--.--,--.--,--.--,--.--,--.--,--.--,0,0.000,0.000,0.000,0.000,0.000,0.000,0.000,0.000,0.000,0.000,0.000,0.000,false,false,false,false,false,false,false,false,false,false,false,false,--.--,--.--,--.--,--.--,--.--,--.--,--.--,--.--,11.2558236,75.8293351,43PEN 90523 44394,0.8,1.1,114.5,3,15,--.--,--.--,--.--,--.--,--.--,--.--,48.35,--.--,--.--,56,0,1.2,1.3,2.3,0,0,0,--.--,--.--,--.--
2021-12-22 11:50:17.819,1.4,-1.5,227,0.0,0.0,0.0,0.7,0.0,-0.0,0.0,40.9,0.0,00:00:10,0.6,0,--.--,--.--,--.--,0,0000:00:00,0,0,0,25.23,0.99,8,--.--,99,--.--,--:--:--,0,24.98,11:50:17,12/22/2021,--.--,--.--,--.--,--.--,--.--,--.--,--.--,--.--,--.--,--.--,--.--,--.--,0,0.000,0.000,0.000,0.000,0.000,0.000,0.000,0.000,0.000,0.000,0.000,0.000,false,false,false,false,false,false,false,false,false,false,false,false,--.--,--.--,--.--,--.--,--.--,--.--,--.--,--.--,11.2558239,75.8293356,43PEN 90523 44394,0.8,1.1,114.5,3,15,--.--,--.--,--.--,--.--,--.--,--.--,48.39,--.--,--.--,56,0,1.2,1.0,1.8,0,0,0,--.--,--.--,--.--
2021-12-22 11:50:18.828,1.4,-1.6,227,0.0,0.0,0.0,0.7,0.2,-0.0,0.0,40.9,0.0,00:00:11,0.6,0,--.--,--.--,--.--,0,0000:00:00,0,0,0,25.16,0.13,8,--.--,99,--.--,--:--:--,0,3.27,11:50:18,12/22/2021,--.--,--.--,--.--,--.--,--.--,--.--,--.--,--.--,--.--,--.--,--.--,--.--,0,0.000,0.000,0.000,0.000,0.000,0.000,0.000,0.000,0.000,0.000,0.000,0.000,false,false,false,false,false,false,false,false,false,false,false,false,--.--,--.--,--.--,--.--,--.--,--.--,--.--,--.--,11.2558238,75.8293361,43PEN 90523 44394,0.8,1.1,114.5,3,15,--.--,--.--,--.--,--.--,--.--,--.--,48.46,--.--,--.--,56,0,1.2,1.0,2.4,0,0,0,--.--,--.--,--.--
2021-12-22 11:50:19.820,1.1,-1.3,227,0.0,0.0,0.0,0.7,0.0,-0.1,-0.0,40.9,0.0,00:00:12,0.7,0,--.--,--.--,--.--,0,0000:00:00,0,0,0,25.24,1.34,8,--.--,99,--.--,--:--:--,0,33.82,11:50:19,12/22/2021,--.--,--.--,--.--,--.--,--.--,--.--,--.--,--.--,--.--,--.--,--.--,--.--,0,0.000,0.000,0.000,0.000,0.000,0.000,0.000,0.000,0.000,0.000,0.000,0.000,false,false,false,false,false,false,false,false,false,false,false,false,--.--,--.--,--.--,--.--,--.--,--.--,--.--,--.--,11.2558237,75.8293366,43PEN 90523 44394,0.8,1.1,114.5,3,15,--.--,--.--,--.--,--.--,--.--,--.--,48.48,--.--,--.--,56,0,1.8,1.4,2.1,0,0,0,--.--,--.--,--.--
2021-12-22 11:50:20.819,1.2,-1.2,227,0.0,0.0,0.0,0.7,0.1,-0.0,-0.1,40.8,0.0,00:00:13,0.8,0,--.--,--.--,--.--,0,0000:00:00,0,0,0,25.13,2.78,10,--.--,99,--.--,--:--:--,0,69.87,11:50:20,12/22/2021,--.--,--.--,--.--,--.--,--.--,--.--,--.--,--.--,--.--,--.--,--.--,--.--,0,0.000,0.000,0.000,0.000,0.000,0.000,0.000,0.000,0.000,0.000,0.000,0.000,false,false,false,false,false,false,false,false,false,false,false,false,--.--,--.--,--.--,--.--,--.--,--.--,--.--,--.--,11.2558238,75.8293368,43PEN 90523 44394,0.8,1.1,114.5,3,15,--.--,--.--,--.--,--.--,--.--,--.--,48.53,--.--,--.--,56,0,1.7,3.1,5.6,0,0,0,--.--,--.--,--.--
2021-12-22 11:50:21.827,1.2,-1.3,227,0.0,0.0,0.0,0.7,0.1,-0.0,-0.1,40.8,0.0,00:00:14,0.8,0,--.--,--.--,--.--,0,0000:00:00,0,0,0,25.17,3.45,10,--.--,99,--.--,--:--:--,0,86.83,11:50:21,12/22/2021,--.--,--.--,--.--,--.--,--.--,--.--,--.--,--.--,--.--,--.--,--.--,--.--,0,0.000,0.000,0.000,0.000,0.000,0.000,0.000,0.000,0.000,0.000,0.000,0.000,false,false,false,false,false,false,false,false,false,false,false,false,--.--,--.--,--.--,--.--,--.--,--.--,--.--,--.--,11.2558239,75.8293369,43PEN 90523 44394,0.8,1.1,114.5,3,15,--.--,--.--,--.--,--.--,--.--,--.--,48.59,--.--,--.--,56,0,1.6,2.7,6.7,0,0,0,--.--,--.--,--.--
2021-12-22 11:50:22.821,1.3,-1.4,227,0.0,0.0,0.0,0.7,0.0,-0.0,-0.1,40.8,0.0,00:00:15,0.8,0,--.--,--.--,--.--,0,0000:00:00,0,0,0,25.19,3.82,11,--.--,99,--.--,--:--:--,0,96.24,11:50:22,12/22/2021,--.--,--.--,--.--,--.--,--.--,--.--,--.--,--.--,--.--,--.--,--.--,--.--,0,0.000,0.000,0.000,0.000,0.000,0.000,0.000,0.000,0.000,0.000,0.000,0.000,false,false,false,false,false,false,false,false,false,false,false,false,--.--,--.--,--.--,--.--,--.--,--.--,--.--,--.--,11.2558239,75.8293369,43PEN 90523 44394,0.8,1.1,114.5,3,15,--.--,--.--,--.--,--.--,--.--,--.--,48.59,--.--,--.--,56,0,1.3,2.3,8.0,0,0,0,--.--,--.--,--.--
2021-12-22 11:50:23.846,1.2,-1.3,227,0.0,0.0,0.0,0.7,0.0,-0.0,-0.0,40.9,0.0,00:00:16,0.8,0,--.--,--.--,--.--,0,0000:00:00,0,0,0,25.13,2.85,12,--.--,99,--.--,--:--:--,0,71.62,11:50:23,12/22/2021,--.--,--.--,--.--,--.--,--.--,--.--,--.--,--.--,--.--,--.--,--.--,--.--,0,0.000,0.000,0.000,0.000,0.000,0.000,0.000,0.000,0.000,0.000,0.000,0.000,false,false,false,false,false,false,false,false,false,false,false,false,--.--,--.--,--.--,--.--,--.--,--.--,--.--,--.--,11.2558241,75.8293375,43PEN 90523 44394,0.8,1.1,114.5,3,15,--.--,--.--,--.--,--.--,--.--,--.--,48.68,--.--,--.--,56,0,1.3,2.0,5.0,0,0,0,--.--,--.--,--.--
2021-12-22 11:50:24.841,1.2,-1.3,227,0.0,0.0,0.0,0.7,0.1,-0.0,-0.0,40.9,0.0,00:00:17,0.8,0,--.--,--.--,--.--,0,0000:00:00,0,0,0,25.15,3.25,14,--.--,99,--.--,--:--:--,0,81.73,11:50:24,12/22/2021,--.--,--.--,--.--,--.--,--.--,--.--,--.--,--.--,--.--,--.--,--.--,--.--,0,0.000,0.000,0.000,0.000,0.000,0.000,0.000,0.000,0.000,0.000,0.000,0.000,false,false,false,false,false,false,false,false,false,false,false,false,--.--,--.--,--.--,--.--,--.--,--.--,--.--,--.--,11.2558242,75.8293376,43PEN 90523 44394,0.8,1.1,114.5,3,15,--.--,--.--,--.--,--.--,--.--,--.--,48.70,--.--,--.--,56,0,1.4,1.6,7.5,0,0,0,--.--,--.--,--.--
2021-12-22 11:50:25.834,1.1,-1.2,227,0.0,0.0,0.0,0.7,0.0,-0.1,-0.0,40.9,0.0,00:00:18,0.8,0,--.--,--.--,--.--,0,0000:00:00,0,0,0,25.13,3.14,14,--.--,99,--.--,--:--:--,0,78.91,11:50:25,12/22/2021,--.--,--.--,--.--,--.--,--.--,--.--,--.--,--.--,--.--,--.--,--.--,--.--,0,0.000,0.000,0.000,0.000,0.000,0.000,0.000,0.000,0.000,0.000,0.000,0.000,false,false,false,false,false,false,false,false,false,false,false,false,--.--,--.--,--.--,--.--,--.--,--.--,--.--,--.--,11.2558242,75.8293376,43PEN 90523 44394,0.8,1.1,114.5,3,15,--.--,--.--,--.--,--.--,--.--,--.--,48.70,--.--,--.--,56,0,1.4,2.9,3.9,0,0,0,--.--,--.--,--.--
2021-12-22 11:50:26.842,1.1,-1.2,227,0.0,0.0,0.0,0.7,0.0,-0.0,-0.0,40.9,0.0,00:00:19,0.9,0,--.--,--.--,--.--,0,0000:00:00,0,0,0,25.13,3.08,16,--.--,99,--.--,--:--:--,0,77.41,11:50:26,12/22/2021,--.--,--.--,--.--,--.--,--.--,--.--,--.--,--.--,--.--,--.--,--.--,--.--,0,0.000,0.000,0.000,0.000,0.000,0.000,0.000,0.000,0.000,0.000,0.000,0.000,false,false,false,false,false,false,false,false,false,false,false,false,--.--,--.--,--.--,--.--,--.--,--.--,--.--,--.--,11.2558244,75.8293380,43PEN 90523 44394,0.8,1.1,114.5,3,15,--.--,--.--,--.--,--.--,--.--,--.--,48.79,--.--,--.--,56,0,1.6,1.0,8.5,0,0,0,--.--,--.--,--.--
2021-12-22 11:50:27.848,1.2,-1.3,227,0.0,0.0,0.0,0.7,0.1,-0.0,-0.1,40.8,0.0,00:00:20,0.9,0,--.--,--.--,--.--,0,0000:00:00,0,0,0,25.15,3.01,17,--.--,99,--.--,--:--:--,0,75.70,11:50:27,12/22/2021,--.--,--.--,--.--,--.--,--.--,--.--,--.--,--.--,--.--,--.--,--.--,--.--,0,0.000,0.000,0.000,0.000,0.000,0.000,0.000,0.000,0.000,0.000,0.000,0.000,false,false,false,false,false,false,false,false,false,false,false,false,--.--,--.--,--.--,--.--,--.--,--.--,--.--,--.--,11.2558246,75.8293382,43PEN 90524 44394,0.8,1.1,114.5,3,15,--.--,--.--,--.--,--.--,--.--,--.--,48.79,--.--,--.--,56,0,1.0,2.3,3.0,0,0,0,--.--,--.--,--.--
2021-12-22 11:50:28.855,0.9,-1.1,227,0.0,0.0,0.0,0.7,0.0,-0.0,-0.1,40.8,0.0,00:00:21,0.9,0,--.--,--.--,--.--,16,0000:00:00,0,0,0,25.08,15.97,18,--.--,99,--.--,--:--:--,0,400.51,11:50:28,12/22/2021,--.--,--.--,--.--,--.--,--.--,--.--,--.--,--.--,--.--,--.--,--.--,--.--,0,0.000,0.000,0.000,0.000,0.000,0.000,0.000,0.000,0.000,0.000,0.000,0.000,false,false,false,false,false,false,false,false,false,false,false,false,--.--,--.--,--.--,--.--,--.--,--.--,--.--,--.--,11.2558246,75.8293384,43PEN 90524 44394,0.8,1.1,114.5,3,15,--.--,--.--,--.--,--.--,--.--,--.--,48.87,--.--,--.--,56,0,0.9,0.9,3.2,0,0,0,--.--,--.--,--.--
2021-12-22 11:50:29.850,-1.0,0.3,237,0.0,0.0,0.0,0.6,0.2,0.3,0.1,41.0,0.0,00:00:22,1.0,0,--.--,--.--,--.--,21,0000:00:00,0,0,0,24.90,27.21,26,--.--,99,--.--,--:--:--,0,677.58,11:50:29,12/22/2021,--.--,--.--,--.--,--.--,--.--,--.--,--.--,--.--,--.--,--.--,--.--,--.--,0,0.000,0.000,0.000,0.000,0.000,0.000,0.000,0.000,0.000,0.000,0.000,0.000,false,false,false,false,false,false,false,false,false,false,false,false,--.--,--.--,--.--,--.--,--.--,--.--,--.--,--.--,11.2558246,75.8293384,43PEN 90524 44394,0.8,1.1,114.5,3,15,--.--,--.--,--.--,--.--,--.--,--.--,48.87,--.--,--.--,56,0,1.7,2.5,2.8,0,0,0,--.--,--.--,--.--
2021-12-22 11:50:30.866,-0.4,-0.3,238,0.0,0.0,0.0,0.6,0.5,0.3,0.4,41.3,0.0,00:00:23,1.4,0,--.--,267,--.--,22,0000:00:00,0,0,0,24.88,28.36,34,--.--,99,--.--,--:--:--,0,705.68,11:50:30,12/22/2021,--.--,--.--,--.--,--.--,--.--,--.--,--.--,--.--,--.--,--.--,--.--,--.--,0,0.000,0.000,0.000,0.000,0.000,0.000,0.000,0.000,0.000,0.000,0.000,0.000,false,false,false,false,false,false,false,false,false,false,false,false,--.--,--.--,--.--,--.--,--.--,--.--,--.--,--.--,11.2558256,75.8293412,43PEN 90524 44394,0.8,1.1,105.6,3,15,--.--,--.--,--.--,--.--,--.--,--.--,48.96,--.--,--.--,56,0,1.9,1.7,3.3,0,0,0,--.--,--.--,--.--
2021-12-22 11:50:31.850,-0.1,0.1,236,0.0,0.0,0.0,0.7,0.6,0.2,0.7,41.6,0.0,00:00:24,2.0,0,--.--,262,--.--,21,0000:00:00,0,0,0,24.86,27.31,42,--.--,99,--.--,--:--:--,0,678.87,11:50:31,12/22/2021,--.--,--.--,--.--,--.--,--.--,--.--,--.--,--.--,--.--,--.--,--.--,--.--,0,0.000,0.000,0.000,0.000,0.000,0.000,0.000,0.000,0.000,0.000,0.000,0.000,false,false,false,false,false,false,false,false,false,false,false,false,--.--,--.--,--.--,--.--,--.--,--.--,--.--,--.--,11.2558272,75.8293454,43PEN 90524 44394,0.8,1.1,73.0,3,15,--.--,--.--,--.--,--.--,--.--,--.--,49.00,--.--,--.--,56,0,2.5,1.7,3.0,0,0,0,--.--,--.--,--.--
2021-12-22 11:50:32.864,0.1,-6.6,236,0.0,0.0,0.0,0.7,0.8,0.2,0.9,41.8,2.2,00:00:25,2.8,0,--.--,258,--.--,21,0000:00:00,0,0,0,24.81,29.68,50,--.--,99,--.--,--:--:--,0,736.48,11:50:32,12/22/2021,--.--,--.--,--.--,--.--,--.--,--.--,--.--,--.--,--.--,--.--,--.--,--.--,0,0.000,0.000,0.000,0.000,0.000,0.000,0.000,0.000,0.000,0.000,0.000,0.000,false,false,false,false,false,false,false,false,false,false,false,false,--.--,--.--,--.--,--.--,--.--,--.--,--.--,--.--,11.2558292,75.8293517,43PEN 90525 44394,0.8,1.1,71.6,3,15,--.--,--.--,--.--,--.--,--.--,--.--,49.02,--.--,--.--,56,0,2.6,2.6,3.5,0,0,0,--.--,--.--,--.--
2021-12-22 11:50:33.859,-1.7,-8.6,234,0.0,0.0,0.0,0.8,0.2,0.1,1.1,42.0,2.2,00:00:26,3.2,0,--.--,258,--.--,23,0000:00:00,0,0,0,24.84,30.69,59,--.--,99,--.--,--:--:--,0,762.22,11:50:33,12/22/2021,--.--,--.--,--.--,--.--,--.--,--.--,--.--,--.--,--.--,--.--,--.--,--.--,0,0.000,0.000,0.000,0.000,0.000,0.000,0.000,0.000,0.000,0.000,0.000,0.000,false,false,false,false,false,false,false,false,false,false,false,false,--.--,--.--,--.--,--.--,--.--,--.--,--.--,--.--,11.2558312,75.8293577,43PEN 90526 44394,0.8,1.1,71.0,3,15,--.--,--.--,--.--,--.--,--.--,--.--,49.07,--.--,--.--,56,0,2.2,2.8,3.7,0,0,0,--.--,--.--,--.--
2021-12-22 11:50:34.863,0.2,1.1,233,0.0,0.0,0.0,1.1,1.0,0.1,1.3,42.2,2.2,00:00:27,2.7,0,--.--,270,--.--,22,0000:00:00,0,0,0,24.82,27.29,67,--.--,99,--.--,--:--:--,0,677.34,11:50:34,12/22/2021,--.--,--.--,--.--,--.--,--.--,--.--,--.--,--.--,--.--,--.--,--.--,--.--,0,0.000,0.000,0.000,0.000,0.000,0.000,0.000,0.000,0.000,0.000,0.000,0.000,false,false,false,false,false,false,false,false,false,false,false,false,--.--,--.--,--.--,--.--,--.--,--.--,--.--,--.--,11.2558257,75.8293541,43PEN 90525 44394,0.8,1.1,215.4,3,15,--.--,--.--,--.--,--.--,--.--,--.--,49.12,--.--,--.--,56,0,2.9,3.4,5.7,0,0,0,--.--,--.--,--.--
2021-12-22 11:50:35.865,-0.0,0.4,231,0.0,0.0,0.0,0.8,0.5,0.1,1.5,42.4,2.2,00:00:28,2.3,0,--.--,284,--.--,19,0000:00:00,0,0,0,24.87,26.72,75,--.--,99,--.--,--:--:--,0,664.63,11:50:35,12/22/2021,--.--,--.--,--.--,--.--,--.--,--.--,--.--,--.--,--.--,--.--,--.--,--.--,0,0.000,0.000,0.000,0.000,0.000,0.000,0.000,0.000,0.000,0.000,0.000,0.000,false,false,false,false,false,false,false,false,false,false,false,false,--.--,--.--,--.--,--.--,--.--,--.--,--.--,--.--,11.2558221,75.8293515,43PEN 90525 44393,0.8,1.1,217.6,3,15,--.--,--.--,--.--,--.--,--.--,--.--,49.16,--.--,--.--,56,0,3.1,2.7,5.6,0,0,0,--.--,--.--,--.--
2021-12-22 11:50:36.864,0.1,-0.5,233,0.0,0.0,0.0,0.6,0.3,-0.1,1.6,42.5,2.2,00:00:29,2.3,0,--.--,291,--.--,21,0000:00:00,0,0,0,24.85,25.62,82,--.--,99,--.--,--:--:--,0,636.61,11:50:36,12/22/2021,--.--,--.--,--.--,--.--,--.--,--.--,--.--,--.--,--.--,--.--,--.--,--.--,0,0.000,0.000,0.000,0.000,0.000,0.000,0.000,0.000,0.000,0.000,0.000,0.000,false,false,false,false,false,false,false,false,false,false,false,false,--.--,--.--,--.--,--.--,--.--,--.--,--.--,--.--,11.2558184,75.8293496,43PEN 90525 44393,0.8,1.1,217.6,3,15,--.--,--.--,--.--,--.--,--.--,--.--,49.19,--.--,--.--,56,0,2.1,3.3,3.8,0,0,0,--.--,--.--,--.--
2021-12-22 11:50:37.877,-0.5,-0.3,232,0.0,0.0,0.0,0.5,0.2,-0.1,1.6,42.5,2.2,00:00:30,2.5,0,--.--,296,--.--,21,0000:00:00,0,0,0,24.87,28.49,92,--.--,99,--.--,--:--:--,0,708.57,11:50:37,12/22/2021,--.--,--.--,--.--,--.--,--.--,--.--,--.--,--.--,--.--,--.--,--.--,--.--,0,0.000,0.000,0.000,0.000,0.000,0.000,0.000,0.000,0.000,0.000,0.000,0.000,false,false,false,false,false,false,false,false,false,false,false,false,--.--,--.--,--.--,--.--,--.--,--.--,--.--,--.--,11.2558155,75.8293495,43PEN 90525 44393,0.8,1.1,174.4,3,15,--.--,--.--,--.--,--.--,--.--,--.--,49.25,--.--,--.--,56,0,1.9,3.2,2.9,0,0,0,--.--,--.--,--.--
2021-12-22 11:50:38.866,-0.4,-0.1,232,0.0,0.0,0.0,0.5,0.4,-0.0,1.5,42.4,2.2,00:00:31,2.6,0,--.--,297,--.--,21,0000:00:00,0,0,0,24.83,28.82,98,--.--,99,--.--,--:--:--,0,715.69,11:50:38,12/22/2021,--.--,--.--,--.--,--.--,--.--,--.--,--.--,--.--,--.--,--.--,--.--,--.--,0,0.000,0.000,0.000,0.000,0.000,0.000,0.000,0.000,0.000,0.000,0.000,0.000,false,false,false,false,false,false,false,false,false,false,false,false,--.--,--.--,--.--,--.--,--.--,--.--,--.--,--.--,11.2558149,75.8293503,43PEN 90525 44393,0.8,1.1,174.4,3,15,--.--,--.--,--.--,--.--,--.--,--.--,49.27,--.--,--.--,56,0,2.5,1.7,3.5,0,0,0,--.--,--.--,--.--
2021-12-22 11:50:39.899,-0.5,-0.2,232,0.0,0.0,0.0,0.4,0.8,0.0,1.5,42.4,2.2,00:00:32,3.0,0,--.--,296,--.--,21,0000:00:00,0,0,0,24.91,28.37,106,--.--,98,--.--,--:--:--,0,706.84,11:50:39,12/22/2021,--.--,--.--,--.--,--.--,--.--,--.--,--.--,--.--,--.--,--.--,--.--,--.--,0,0.000,0.000,0.000,0.000,0.000,0.000,0.000,0.000,0.000,0.000,0.000,0.000,false,false,false,false,false,false,false,false,false,false,false,false,--.--,--.--,--.--,--.--,--.--,--.--,--.--,--.--,11.2558130,75.8293532,43PEN 90525 44392,0.8,1.1,121.2,3,15,--.--,--.--,--.--,--.--,--.--,--.--,49.30,--.--,--.--,56,0,2.1,1.8,3.1,0,0,0,--.--,--.--,--.--
2021-12-22 11:50:40.897,-1.1,-0.9,232,0.0,0.0,0.0,0.3,0.7,0.0,1.5,42.4,4.2,00:00:33,3.9,0,--.--,295,--.--,22,0000:00:00,0,0,0,24.80,27.89,114,--.--,98,--.--,--:--:--,0,691.73,11:50:40,12/22/2021,--.--,--.--,--.--,--.--,--.--,--.--,--.--,--.--,--.--,--.--,--.--,--.--,0,0.000,0.000,0.000,0.000,0.000,0.000,0.000,0.000,0.000,0.000,0.000,0.000,false,false,false,false,false,false,false,false,false,false,false,false,--.--,--.--,--.--,--.--,--.--,--.--,--.--,--.--,11.2558104,75.8293600,43PEN 90526 44392,0.8,1.1,108.5,3,15,--.--,--.--,--.--,--.--,--.--,--.--,49.35,--.--,--.--,56,0,1.7,1.8,2.4,0,0,0,--.--,--.--,--.--
2021-12-22 11:50:41.887,3.5,-1.9,230,0.0,0.0,0.0,0.5,0.3,0.0,1.4,42.3,4.2,00:00:34,4.5,0,--.--,296,--.--,22,0000:00:00,0,0,0,24.77,29.55,124,--.--,98,--.--,--:--:--,0,732.07,11:50:41,12/22/2021,--.--,--.--,--.--,--.--,--.--,--.--,--.--,--.--,--.--,--.--,--.--,--.--,0,0.000,0.000,0.000,0.000,0.000,0.000,0.000,0.000,0.000,0.000,0.000,0.000,false,false,false,false,false,false,false,false,false,false,false,false,--.--,--.--,--.--,--.--,--.--,--.--,--.--,--.--,11.2558074,75.8293659,43PEN 90527 44392,0.8,1.1,119.6,3,15,--.--,--.--,--.--,--.--,--.--,--.--,49.38,--.--,--.--,56,0,1.7,2.8,2.8,0,0,0,--.--,--.--,--.--
2021-12-22 11:50:42.902,1.8,-1.4,230,0.0,0.0,0.0,0.8,0.1,0.0,1.5,42.4,4.2,00:00:35,4.6,0,--.--,296,--.--,21,0000:00:00,0,0,0,24.79,29.26,130,--.--,98,--.--,--:--:--,0,725.24,11:50:42,12/22/2021,--.--,--.--,--.--,--.--,--.--,--.--,--.--,--.--,--.--,--.--,--.--,--.--,0,0.000,0.000,0.000,0.000,0.000,0.000,0.000,0.000,0.000,0.000,0.000,0.000,false,false,false,false,false,false,false,false,false,false,false,false,--.--,--.--,--.--,--.--,--.--,--.--,--.--,--.--,11.2558066,75.8293673,43PEN 90527 44392,0.8,1.1,123.4,3,15,--.--,--.--,--.--,--.--,--.--,--.--,49.39,--.--,--.--,56,0,1.9,2.5,2.5,0,0,0,--.--,--.--,--.--
2021-12-22 11:50:43.912,0.3,-1.6,229,0.0,0.0,0.0,0.9,0.2,-0.1,1.5,42.4,4.2,00:00:36,4.5,0,--.--,295,--.--,21,0000:00:00,0,0,0,24.72,27.42,138,--.--,98,--.--,--:--:--,0,677.82,11:50:43,12/22/2021,--.--,--.--,--.--,--.--,--.--,--.--,--.--,--.--,--.--,--.--,--.--,--.--,0,0.000,0.000,0.000,0.000,0.000,0.000,0.000,0.000,0.000,0.000,0.000,0.000,false,false,false,false,false,false,false,false,false,false,false,false,--.--,--.--,--.--,--.--,--.--,--.--,--.--,--.--,11.2558076,75.8293677,43PEN 90527 44392,0.8,1.1,123.4,3,15,--.--,--.--,--.--,--.--,--.--,--.--,49.44,--.--,--.--,56,0,1.8,2.4,2.3,0,0,0,--.--,--.--,--.--
2021-12-22 11:50:44.916,-0.0,-4.1,230,0.0,0.0,0.0,0.8,0.1,-0.1,1.6,42.5,4.2,00:00:37,4.4,0,--.--,295,--.--,21,0000:00:00,0,0,0,24.78,30.09,148,--.--,98,--.--,--:--:--,0,745.66,11:50:44,12/22/2021,--.--,--.--,--.--,--.--,--.--,--.--,--.--,--.--,--.--,--.--,--.--,--.--,0,0.000,0.000,0.000,0.000,0.000,0.000,0.000,0.000,0.000,0.000,0.000,0.000,false,false,false,false,false,false,false,false,false,false,false,false,--.--,--.--,--.--,--.--,--.--,--.--,--.--,--.--,11.2558083,75.8293669,43PEN 90527 44392,0.8,1.1,123.4,3,15,--.--,--.--,--.--,--.--,--.--,--.--,49.47,--.--,--.--,56,0,2.0,2.8,2.9,0,0,0,--.--,--.--,--.--
2021-12-22 11:50:45.913,-0.0,-1.7,229,0.0,0.0,0.0,0.9,0.4,-0.1,1.6,42.5,4.2,00:00:38,4.3,0,--.--,297,--.--,21,0000:00:00,0,0,0,24.73,28.05,153,--.--,98,--.--,--:--:--,0,693.56,11:50:45,12/22/2021,--.--,--.--,--.--,--.--,--.--,--.--,--.--,--.--,--.--,--.--,--.--,--.--,0,0.000,0.000,0.000,0.000,0.000,0.000,0.000,0.000,0.000,0.000,0.000,0.000,false,false,false,false,false,false,false,false,false,false,false,false,--.--,--.--,--.--,--.--,--.--,--.--,--.--,--.--,11.2558077,75.8293658,43PEN 90527 44392,0.8,1.1,123.4,3,15,--.--,--.--,--.--,--.--,--.--,--.--,49.48,--.--,--.--,56,0,1.9,2.7,2.5,0,0,0,--.--,--.--,--.--
2021-12-22 11:50:46.918,0.4,-1.5,230,0.0,0.0,0.0,0.9,0.5,-0.1,1.6,42.5,4.2,00:00:39,4.2,0,--.--,305,--.--,21,0000:00:00,0,0,0,24.75,28.88,164,--.--,98,--.--,--:--:--,0,714.78,11:50:46,12/22/2021,--.--,--.--,--.--,--.--,--.--,--.--,--.--,--.--,--.--,--.--,--.--,--.--,0,0.000,0.000,0.000,0.000,0.000,0.000,0.000,0.000,0.000,0.000,0.000,0.000,false,false,false,false,false,false,false,false,false,false,false,false,--.--,--.--,--.--,--.--,--.--,--.--,--.--,--.--,11.2558035,75.8293619,43PEN 90526 44391,0.8,1.1,218.3,3,15,--.--,--.--,--.--,--.--,--.--,--.--,49.52,--.--,--.--,56,0,1.4,2.5,2.3,0,0,0,--.--,--.--,--.--
2021-12-22 11:50:47.931,1.1,-1.1,230,0.0,0.0,0.0,1.0,0.4,-0.1,1.6,42.5,4.2,00:00:40,4.1,0,--.--,312,--.--,21,0000:00:00,0,0,0,24.78,28.47,172,--.--,98,--.--,--:--:--,0,705.54,11:50:47,12/22/2021,--.--,--.--,--.--,--.--,--.--,--.--,--.--,--.--,--.--,--.--,--.--,--.--,0,0.000,0.000,0.000,0.000,0.000,0.000,0.000,0.000,0.000,0.000,0.000,0.000,false,false,false,false,false,false,false,false,false,false,false,false,--.--,--.--,--.--,--.--,--.--,--.--,--.--,--.--,11.2558002,75.8293590,43PEN 90526 44391,0.8,1.1,223.2,3,15,--.--,--.--,--.--,--.--,--.--,--.--,49.55,--.--,--.--,56,0,1.8,2.9,2.6,0,0,0,--.--,--.--,--.--
2021-12-22 11:50:48.955,0.6,-0.7,227,0.0,0.0,0.0,0.9,0.4,-0.1,1.6,42.5,4.2,00:00:41,4.1,0,--.--,318,--.--,21,0000:00:00,0,0,0,24.78,28.92,180,--.--,98,--.--,--:--:--,0,716.67,11:50:48,12/22/2021,--.--,--.--,--.--,--.--,--.--,--.--,--.--,--.--,--.--,--.--,--.--,--.--,0,0.000,0.000,0.000,0.000,0.000,0.000,0.000,0.000,0.000,0.000,0.000,0.000,false,false,false,false,false,false,false,false,false,false,false,false,--.--,--.--,--.--,--.--,--.--,--.--,--.--,--.--,11.2557972,75.8293558,43PEN 90525 44391,0.8,1.1,234.6,3,15,--.--,--.--,--.--,--.--,--.--,--.--,49.58,--.--,--.--,56,0,2.7,2.2,3.5,0,0,0,--.--,--.--,--.--
2021-12-22 11:50:49.952,1.1,-3.0,228,0.0,0.0,0.0,1.0,0.4,-0.1,1.6,42.5,4.2,00:00:42,4.2,0,--.--,324,--.--,21,0000:00:00,0,0,0,24.71,27.34,187,--.--,98,--.--,--:--:--,0,675.54,11:50:49,12/22/2021,--.--,--.--,--.--,--.--,--.--,--.--,--.--,--.--,--.--,--.--,--.--,--.--,0,0.000,0.000,0.000,0.000,0.000,0.000,0.000,0.000,0.000,0.000,0.000,0.000,false,false,false,false,false,false,false,false,false,false,false,false,--.--,--.--,--.--,--.--,--.--,--.--,--.--,--.--,11.2557949,75.8293531,43PEN 90525 44390,0.8,1.1,226.7,3,15,--.--,--.--,--.--,--.--,--.--,--.--,49.61,--.--,--.--,56,0,2.5,2.2,3.4,0,0,0,--.--,--.--,--.--
2021-12-22 11:50:50.966,0.9,-2.3,228,0.0,0.0,0.0,1.1,0.7,-0.0,1.5,42.4,6.4,00:00:43,4.3,0,--.--,332,--.--,21,0000:00:00,0,0,0,24.76,29.65,195,--.--,98,--.--,--:--:--,0,734.25,11:50:50,12/22/2021,--.--,--.--,--.--,--.--,--.--,--.--,--.--,--.--,--.--,--.--,--.--,--.--,0,0.000,0.000,0.000,0.000,0.000,0.000,0.000,0.000,0.000,0.000,0.000,0.000,false,false,false,false,false,false,false,false,false,false,false,false,--.--,--.--,--.--,--.--,--.--,--.--,--.--,--.--,11.2557920,75.8293496,43PEN 90525 44390,0.8,1.1,227.9,3,15,--.--,--.--,--.--,--.--,--.--,--.--,49.63,--.--,--.--,56,0,2.1,2.4,3.5,0,0,0,--.--,--.--,--.--
2021-12-22 11:50:51.988,1.0,-1.3,228,0.0,0.0,0.0,1.2,0.7,-0.0,1.5,42.4,6.4,00:00:44,4.4,0,--.--,341,--.--,21,0000:00:00,0,0,0,24.75,28.25,203,--.--,97,--.--,--:--:--,0,699.19,11:50:51,12/22/2021,--.--,--.--,--.--,--.--,--.--,--.--,--.--,--.--,--.--,--.--,--.--,--.--,0,0.000,0.000,0.000,0.000,0.000,0.000,0.000,0.000,0.000,0.000,0.000,0.000,false,false,false,false,false,false,false,false,false,false,false,false,--.--,--.--,--.--,--.--,--.--,--.--,--.--,--.--,11.2557882,75.8293447,43PEN 90524 44390,0.8,1.1,227.2,3,15,--.--,--.--,--.--,--.--,--.--,--.--,49.66,--.--,--.--,56,0,2.1,2.6,4.0,0,0,0,--.--,--.--,--.--
2021-12-22 11:50:52.997,1.3,-1.1,227,0.0,0.0,0.0,1.2,0.7,-0.1,1.6,42.5,6.4,00:00:45,4.8,0,--.--,349,--.--,21,0000:00:00,0,0,0,24.73,28.69,211,--.--,97,--.--,--:--:--,0,709.39,11:50:52,12/22/2021,--.--,--.--,--.--,--.--,--.--,--.--,--.--,--.--,--.--,--.--,--.--,--.--,0,0.000,0.000,0.000,0.000,0.000,0.000,0.000,0.000,0.000,0.000,0.000,0.000,false,false,false,false,false,false,false,false,false,false,false,false,--.--,--.--,--.--,--.--,--.--,--.--,--.--,--.--,11.2557837,75.8293396,43PEN 90524 44389,0.8,1.1,225.5,3,15,--.--,--.--,--.--,--.--,--.--,--.--,49.69,--.--,--.--,56,0,2.0,2.3,3.4,0,0,0,--.--,--.--,--.--
2021-12-22 11:50:53.992,0.5,-1.4,226,0.0,0.0,0.0,1.1,0.7,-0.1,1.6,42.5,8.5,00:00:46,5.2,0,--.--,356,--.--,21,0000:00:00,0,0,0,24.73,28.21,219,--.--,97,--.--,--:--:--,0,697.75,11:50:53,12/22/2021,--.--,--.--,--.--,--.--,--.--,--.--,--.--,--.--,--.--,--.--,--.--,--.--,0,0.000,0.000,0.000,0.000,0.000,0.000,0.000,0.000,0.000,0.000,0.000,0.000,false,false,false,false,false,false,false,false,false,false,false,false,--.--,--.--,--.--,--.--,--.--,--.--,--.--,--.--,11.2557797,75.8293349,43PEN 90523 44389,0.8,1.1,227.9,3,15,--.--,--.--,--.--,--.--,--.--,--.--,49.71,--.--,--.--,56,0,2.0,2.3,3.4,0,0,0,--.--,--.--,--.--
2021-12-22 11:50:54.996,1.5,-1.9,228,0.0,0.0,0.0,1.1,0.7,-0.1,1.6,42.5,8.5,00:00:47,5.5,0,--.--,359,--.--,21,0000:00:00,0,0,0,24.73,27.93,227,--.--,97,--.--,--:--:--,0,690.82,11:50:54,12/22/2021,--.--,--.--,--.--,--.--,--.--,--.--,--.--,--.--,--.--,--.--,--.--,--.--,0,0.000,0.000,0.000,0.000,0.000,0.000,0.000,0.000,0.000,0.000,0.000,0.000,false,false,false,false,false,false,false,false,false,false,false,false,--.--,--.--,--.--,--.--,--.--,--.--,--.--,--.--,11.2557772,75.8293321,43PEN 90523 44388,0.8,1.1,227.2,3,15,--.--,--.--,--.--,--.--,--.--,--.--,49.72,--.--,--.--,56,0,2.0,2.3,3.5,0,0,0,--.--,--.--,--.--
2021-12-22 11:50:56.018,0.7,1.5,227,0.0,0.0,0.0,1.1,0.8,-0.1,1.6,42.5,8.5,00:00:48,6.2,0,--.--,6,--.--,22,0000:00:00,0,0,0,24.74,28.05,234,--.--,97,--.--,--:--:--,0,694.01,11:50:56,12/22/2021,--.--,--.--,--.--,--.--,--.--,--.--,--.--,--.--,--.--,--.--,--.--,--.--,0,0.000,0.000,0.000,0.000,0.000,0.000,0.000,0.000,0.000,0.000,0.000,0.000,false,false,false,false,false,false,false,false,false,false,false,false,--.--,--.--,--.--,--.--,--.--,--.--,--.--,--.--,11.2557711,75.8293257,43PEN 90522 44388,0.8,1.1,225.9,3,15,--.--,--.--,--.--,--.--,--.--,--.--,49.75,--.--,--.--,56,0,2.0,2.3,3.4,0,0,0,--.--,--.--,--.--
2021-12-22 11:50:57.007,1.1,-1.9,227,0.0,0.0,0.0,0.9,0.4,-0.1,1.5,42.4,10.6,00:00:49,6.6,0,--.--,9,--.--,22,0000:00:00,0,0,0,24.74,29.05,242,--.--,97,--.--,--:--:--,0,718.76,11:50:57,12/22/2021,--.--,--.--,--.--,--.--,--.--,--.--,--.--,--.--,--.--,--.--,--.--,--.--,0,0.000,0.000,0.000,0.000,0.000,0.000,0.000,0.000,0.000,0.000,0.000,0.000,false,false,false,false,false,false,false,false,false,false,false,false,--.--,--.--,--.--,--.--,--.--,--.--,--.--,--.--,11.2557673,75.8293214,43PEN 90522 44387,0.8,1.1,221.3,3,15,--.--,--.--,--.--,--.--,--.--,--.--,49.78,--.--,--.--,56,0,2.4,2.4,3.8,0,0,0,--.--,--.--,--.--
2021-12-22 11:50:58.018,0.8,-0.9,225,0.0,0.0,0.0,1.1,0.6,-0.0,1.5,42.4,10.6,00:00:50,7.0,0,--.--,12,--.--,22,0000:00:00,0,0,0,24.68,28.25,250,--.--,97,--.--,--:--:--,0,697.32,11:50:58,12/22/2021,--.--,--.--,--.--,--.--,--.--,--.--,--.--,--.--,--.--,--.--,--.--,--.--,0,0.000,0.000,0.000,0.000,0.000,0.000,0.000,0.000,0.000,0.000,0.000,0.000,false,false,false,false,false,false,false,false,false,false,false,false,--.--,--.--,--.--,--.--,--.--,--.--,--.--,--.--,11.2557643,75.8293187,43PEN 90521 44387,0.8,1.1,226.2,3,15,--.--,--.--,--.--,--.--,--.--,--.--,49.80,--.--,--.--,56,0,2.2,2.1,3.5,0,0,0,--.--,--.--,--.--
2021-12-22 11:50:59.013,1.7,-0.3,225,0.0,0.0,0.0,1.1,0.6,-0.0,1.5,42.4,10.6,00:00:51,7.6,0,--.--,14,--.--,22,0000:00:00,0,0,0,24.73,28.26,258,--.--,97,--.--,--:--:--,0,698.90,11:50:59,12/22/2021,--.--,--.--,--.--,--.--,--.--,--.--,--.--,--.--,--.--,--.--,--.--,--.--,0,0.000,0.000,0.000,0.000,0.000,0.000,0.000,0.000,0.000,0.000,0.000,0.000,false,false,false,false,false,false,false,false,false,false,false,false,--.--,--.--,--.--,--.--,--.--,--.--,--.--,--.--,11.2557603,75.8293147,43PEN 90521 44387,0.8,1.1,220.3,3,15,--.--,--.--,--.--,--.--,--.--,--.--,49.82,--.--,--.--,56,0,2.0,2.4,3.9,0,0,0,--.--,--.--,--.--
2021-12-22 11:51:00.009,2.5,0.5,226,0.0,0.0,0.0,1.0,0.5,-0.0,1.5,42.4,12.6,00:00:52,8.0,0,--.--,16,--.--,22,0000:00:00,0,0,0,24.70,28.54,265,--.--,97,--.--,--:--:--,0,704.91,11:51:00,12/22/2021,--.--,--.--,--.--,--.--,--.--,--.--,--.--,--.--,--.--,--.--,--.--,--.--,0,0.000,0.000,0.000,0.000,0.000,0.000,0.000,0.000,0.000,0.000,0.000,0.000,false,false,false,false,false,false,false,false,false,false,false,false,--.--,--.--,--.--,--.--,--.--,--.--,--.--,--.--,11.2557565,75.8293109,43PEN 90521 44386,0.8,1.1,219.3,3,15,--.--,--.--,--.--,--.--,--.--,--.--,49.85,--.--,--.--,56,0,2.0,2.6,3.7,0,0,0,--.--,--.--,--.--
2021-12-22 11:51:01.021,1.3,-0.6,226,0.0,0.0,0.0,1.1,0.3,-0.0,1.5,42.4,12.6,00:00:53,8.3,0,--.--,18,--.--,22,0000:00:00,0,0,0,24.64,29.57,273,--.--,97,--.--,--:--:--,0,728.55,11:51:01,12/22/2021,--.--,--.--,--.--,--.--,--.--,--.--,--.--,--.--,--.--,--.--,--.--,--.--,0,0.000,0.000,0.000,0.000,0.000,0.000,0.000,0.000,0.000,0.000,0.000,0.000,false,false,false,false,false,false,false,false,false,false,false,false,--.--,--.--,--.--,--.--,--.--,--.--,--.--,--.--,11.2557542,75.8293077,43PEN 90520 44386,0.8,1.1,228.8,3,15,--.--,--.--,--.--,--.--,--.--,--.--,49.87,--.--,--.--,56,0,2.0,2.7,3.8,0,0,0,--.--,--.--,--.--
2021-12-22 11:51:02.010,0.8,-1.9,228,0.0,0.0,0.0,1.0,0.3,-0.1,1.6,42.5,12.6,00:00:54,8.4,0,--.--,20,--.--,23,0000:00:00,0,0,0,24.71,29.21,281,--.--,97,--.--,--:--:--,0,721.66,11:51:02,12/22/2021,--.--,--.--,--.--,--.--,--.--,--.--,--.--,--.--,--.--,--.--,--.--,--.--,0,0.000,0.000,0.000,0.000,0.000,0.000,0.000,0.000,0.000,0.000,0.000,0.000,false,false,false,false,false,false,false,false,false,false,false,false,--.--,--.--,--.--,--.--,--.--,--.--,--.--,--.--,11.2557543,75.8293043,43PEN 90520 44386,0.8,1.1,279.0,3,15,--.--,--.--,--.--,--.--,--.--,--.--,49.89,--.--,--.--,56,0,1.9,2.5,3.2,0,0,0,--.--,--.--,--.--
2021-12-22 11:51:03.021,0.8,-0.7,231,0.0,0.0,0.0,1.0,0.3,-0.1,1.6,42.5,12.6,00:00:55,8.7,0,--.--,22,--.--,22,0000:00:00,0,0,0,24.68,29.60,289,--.--,97,--.--,--:--:--,0,730.47,11:51:03,12/22/2021,--.--,--.--,--.--,--.--,--.--,--.--,--.--,--.--,--.--,--.--,--.--,--.--,0,0.000,0.000,0.000,0.000,0.000,0.000,0.000,0.000,0.000,0.000,0.000,0.000,false,false,false,false,false,false,false,false,false,false,false,false,--.--,--.--,--.--,--.--,--.--,--.--,--.--,--.--,11.2557528,75.8293011,43PEN 90519 44386,0.8,1.1,279.0,3,15,--.--,--.--,--.--,--.--,--.--,--.--,49.91,--.--,--.--,56,0,1.9,2.8,2.7,0,0,0,--.--,--.--,--.--
2021-12-22 11:51:04.019,-0.3,-0.8,227,0.0,0.0,0.0,0.7,0.1,-0.0,1.5,42.4,12.6,00:00:56,8.8,0,--.--,23,--.--,22,0000:00:00,0,0,0,24.64,29.84,298,--.--,97,--.--,--:--:--,0,735.38,11:51:04,12/22/2021,--.--,--.--,--.--,--.--,--.--,--.--,--.--,--.--,--.--,--.--,--.--,--.--,0,0.000,0.000,0.000,0.000,0.000,0.000,0.000,0.000,0.000,0.000,0.000,0.000,false,false,false,false,false,false,false,false,false,false,false,false,--.--,--.--,--.--,--.--,--.--,--.--,--.--,--.--,11.2557519,75.8292986,43PEN 90519 44386,0.8,1.1,279.0,3,15,--.--,--.--,--.--,--.--,--.--,--.--,49.94,--.--,--.--,56,0,2.2,1.9,3.2,0,0,0,--.--,--.--,--.--
2021-12-22 11:51:05.022,1.2,-0.7,227,0.0,0.0,0.0,0.7,0.1,-0.0,1.5,42.4,12.6,00:00:57,8.9,0,--.--,22,--.--,22,0000:00:00,0,0,0,24.67,29.86,306,--.--,96,--.--,--:--:--,0,736.53,11:51:05,12/22/2021,--.--,--.--,--.--,--.--,--.--,--.--,--.--,--.--,--.--,--.--,--.--,--.--,0,0.000,0.000,0.000,0.000,0.000,0.000,0.000,0.000,0.000,0.000,0.000,0.000,false,false,false,false,false,false,false,false,false,false,false,false,--.--,--.--,--.--,--.--,--.--,--.--,--.--,--.--,11.2557505,75.8292987,43PEN 90519 44385,0.8,1.1,279.0,3,15,--.--,--.--,--.--,--.--,--.--,--.--,49.96,--.--,--.--,56,0,2.2,2.1,3.7,0,0,0,--.--,--.--,--.--
2021-12-22 11:51:06.022,2.5,-1.4,227,0.0,0.0,0.0,0.9,0.1,-0.0,1.5,42.4,12.6,00:00:58,8.9,0,--.--,22,--.--,21,0000:00:00,0,0,0,24.62,27.88,314,--.--,96,--.--,--:--:--,0,686.29,11:51:06,12/22/2021,--.--,--.--,--.--,--.--,--.--,--.--,--.--,--.--,--.--,--.--,--.--,--.--,0,0.000,0.000,0.000,0.000,0.000,0.000,0.000,0.000,0.000,0.000,0.000,0.000,false,false,false,false,false,false,false,false,false,false,false,false,--.--,--.--,--.--,--.--,--.--,--.--,--.--,--.--,11.2557495,75.8292993,43PEN 90519 44385,0.8,1.1,279.0,3,15,--.--,--.--,--.--,--.--,--.--,--.--,49.98,--.--,--.--,56,0,1.7,1.6,3.5,0,0,0,--.--,--.--,--.--
2021-12-22 11:51:07.031,0.8,-1.4,230,0.0,0.0,0.0,1.0,0.2,-0.0,1.5,42.4,12.6,00:00:59,8.9,0,--.--,23,--.--,22,0000:00:00,0,0,0,24.65,29.80,322,--.--,96,--.--,--:--:--,0,734.63,11:51:07,12/22/2021,--.--,--.--,--.--,--.--,--.--,--.--,--.--,--.--,--.--,--.--,--.--,--.--,0,0.000,0.000,0.000,0.000,0.000,0.000,0.000,0.000,0.000,0.000,0.000,0.000,false,false,false,false,false,false,false,false,false,false,false,false,--.--,--.--,--.--,--.--,--.--,--.--,--.--,--.--,11.2557505,75.8292989,43PEN 90519 44385,0.8,1.1,302.0,3,15,--.--,--.--,--.--,--.--,--.--,--.--,50.01,--.--,--.--,56,0,1.8,2.3,2.6,0,0,0,--.--,--.--,--.--
2021-12-22 11:51:08.038,0.5,-1.2,231,0.0,0.0,0.0,0.9,0.2,-0.1,1.5,42.4,12.6,00:01:00,8.8,0,--.--,24,--.--,22,0000:00:00,0,0,0,24.76,29.59,330,--.--,96,--.--,--:--:--,0,732.77,11:51:08,12/22/2021,--.--,--.--,--.--,--.--,--.--,--.--,--.--,--.--,--.--,--.--,--.--,--.--,0,0.000,0.000,0.000,0.000,0.000,0.000,0.000,0.000,0.000,0.000,0.000,0.000,false,false,false,false,false,false,false,false,false,false,false,false,--.--,--.--,--.--,--.--,--.--,--.--,--.--,--.--,11.2557526,75.8292972,43PEN 90519 44386,0.8,1.1,313.1,3,15,--.--,--.--,--.--,--.--,--.--,--.--,50.03,--.--,--.--,56,0,1.4,2.2,2.2,0,0,0,--.--,--.--,--.--
2021-12-22 11:51:09.049,-0.9,-1.6,228,0.0,0.0,0.0,0.8,0.1,-0.0,1.5,42.4,12.6,00:01:01,8.8,0,--.--,25,--.--,21,0000:00:00,0,0,0,24.62,27.46,338,--.--,96,--.--,--:--:--,0,676.18,11:51:09,12/22/2021,--.--,--.--,--.--,--.--,--.--,--.--,--.--,--.--,--.--,--.--,--.--,--.--,0,0.000,0.000,0.000,0.000,0.000,0.000,0.000,0.000,0.000,0.000,0.000,0.000,false,false,false,false,false,false,false,false,false,false,false,false,--.--,--.--,--.--,--.--,--.--,--.--,--.--,--.--,11.2557534,75.8292961,43PEN 90519 44386,0.8,1.1,312.1,3,15,--.--,--.--,--.--,--.--,--.--,--.--,50.05,--.--,--.--,56,0,2.1,1.9,3.5,0,0,0,--.--,--.--,--.--
2021-12-22 11:51:10.058,0.9,-2.7,227,0.0,0.0,0.0,0.8,0.2,-0.0,1.5,42.4,12.6,00:01:02,8.8,0,--.--,25,--.--,21,0000:00:00,0,0,0,24.63,29.18,346,--.--,96,--.--,--:--:--,0,718.82,11:51:10,12/22/2021,--.--,--.--,--.--,--.--,--.--,--.--,--.--,--.--,--.--,--.--,--.--,--.--,0,0.000,0.000,0.000,0.000,0.000,0.000,0.000,0.000,0.000,0.000,0.000,0.000,false,false,false,false,false,false,false,false,false,false,false,false,--.--,--.--,--.--,--.--,--.--,--.--,--.--,--.--,11.2557536,75.8292960,43PEN 90519 44386,0.8,1.1,312.1,3,15,--.--,--.--,--.--,--.--,--.--,--.--,50.08,--.--,--.--,56,0,2.3,2.4,3.9,0,0,0,--.--,--.--,--.--
2021-12-22 11:51:11.079,-1.0,-0.6,227,0.0,0.0,0.0,0.9,0.3,-0.0,1.5,42.4,12.6,00:01:03,9.2,0,--.--,26,--.--,22,0000:00:00,0,0,0,24.65,28.10,356,--.--,96,--.--,--:--:--,0,692.55,11:51:11,12/22/2021,--.--,--.--,--.--,--.--,--.--,--.--,--.--,--.--,--.--,--.--,--.--,--.--,0,0.000,0.000,0.000,0.000,0.000,0.000,0.000,0.000,0.000,0.000,0.000,0.000,false,false,false,false,false,false,false,false,false,false,false,false,--.--,--.--,--.--,--.--,--.--,--.--,--.--,--.--,11.2557519,75.8292945,43PEN 90519 44386,0.8,1.1,275.1,3,15,--.--,--.--,--.--,--.--,--.--,--.--,50.10,--.--,--.--,56,0,2.3,3.5,3.7,0,0,0,--.--,--.--,--.--
2021-12-22 11:51:12.072,0.2,-2.4,228,0.0,0.0,0.0,1.0,0.3,-0.0,1.5,42.4,14.6,00:01:04,9.4,0,--.--,27,--.--,22,0000:00:00,0,0,0,24.63,29.05,362,--.--,96,--.--,--:--:--,0,715.62,11:51:12,12/22/2021,--.--,--.--,--.--,--.--,--.--,--.--,--.--,--.--,--.--,--.--,--.--,--.--,0,0.000,0.000,0.000,0.000,0.000,0.000,0.000,0.000,0.000,0.000,0.000,0.000,false,false,false,false,false,false,false,false,false,false,false,false,--.--,--.--,--.--,--.--,--.--,--.--,--.--,--.--,11.2557499,75.8292917,43PEN 90518 44385,0.8,1.1,246.5,3,15,--.--,--.--,--.--,--.--,--.--,--.--,50.12,--.--,--.--,56,0,3.0,2.0,4.3,0,0,0,--.--,--.--,--.--
2021-12-22 11:51:13.099,-0.3,2.5,229,0.0,0.0,0.0,0.8,0.3,-0.0,1.5,42.4,14.6,00:01:05,9.8,0,--.--,28,--.--,22,0000:00:00,0,0,0,24.63,28.84,370,--.--,96,--.--,--:--:--,0,710.27,11:51:13,12/22/2021,--.--,--.--,--.--,--.--,--.--,--.--,--.--,--.--,--.--,--.--,--.--,--.--,0,0.000,0.000,0.000,0.000,0.000,0.000,0.000,0.000,0.000,0.000,0.000,0.000,false,false,false,false,false,false,false,false,false,false,false,false,--.--,--.--,--.--,--.--,--.--,--.--,--.--,--.--,11.2557477,75.8292886,43PEN 90518 44385,0.8,1.1,233.4,3,15,--.--,--.--,--.--,--.--,--.--,--.--,50.14,--.--,--.--,56,0,2.3,3.0,3.5,0,0,0,--.--,--.--,--.--
2021-12-22 11:51:14.090,0.3,-0.8,228,0.0,0.0,0.0,0.7,0.1,0.0,1.5,42.4,14.6,00:01:06,9.8,0,--.--,28,--.--,21,0000:00:00,0,0,0,24.57,28.60,378,--.--,96,--.--,--:--:--,0,702.85,11:51:14,12/22/2021,--.--,--.--,--.--,--.--,--.--,--.--,--.--,--.--,--.--,--.--,--.--,--.--,0,0.000,0.000,0.000,0.000,0.000,0.000,0.000,0.000,0.000,0.000,0.000,0.000,false,false,false,false,false,false,false,false,false,false,false,false,--.--,--.--,--.--,--.--,--.--,--.--,--.--,--.--,11.2557468,75.8292881,43PEN 90518 44385,0.8,1.1,233.4,3,15,--.--,--.--,--.--,--.--,--.--,--.--,50.16,--.--,--.--,56,0,2.7,2.6,3.7,0,0,0,--.--,--.--,--.--
2021-12-22 11:51:15.088,0.8,-2.0,229,0.0,0.0,0.0,0.8,0.1,-0.1,1.6,42.5,14.6,00:01:07,9.7,0,--.--,27,--.--,22,0000:00:00,0,0,0,24.59,28.85,388,--.--,96,--.--,--:--:--,0,709.51,11:51:15,12/22/2021,--.--,--.--,--.--,--.--,--.--,--.--,--.--,--.--,--.--,--.--,--.--,--.--,0,0.000,0.000,0.000,0.000,0.000,0.000,0.000,0.000,0.000,0.000,0.000,0.000,false,false,false,false,false,false,false,false,false,false,false,false,--.--,--.--,--.--,--.--,--.--,--.--,--.--,--.--,11.2557469,75.8292897,43PEN 90518 44385,0.8,1.1,233.4,3,15,--.--,--.--,--.--,--.--,--.--,--.--,50.19,--.--,--.--,56,0,2.5,2.4,3.5,0,0,0,--.--,--.--,--.--
2021-12-22 11:51:16.086,-0.0,-4.3,227,0.0,0.0,0.0,1.0,0.3,-0.1,1.6,42.5,14.6,00:01:08,9.8,0,--.--,27,--.--,22,0000:00:00,0,0,0,24.61,28.96,393,--.--,96,--.--,--:--:--,0,712.73,11:51:16,12/22/2021,--.--,--.--,--.--,--.--,--.--,--.--,--.--,--.--,--.--,--.--,--.--,--.--,0,0.000,0.000,0.000,0.000,0.000,0.000,0.000,0.000,0.000,0.000,0.000,0.000,false,false,false,false,false,false,false,false,false,false,false,false,--.--,--.--,--.--,--.--,--.--,--.--,--.--,--.--,11.2557469,75.8292900,43PEN 90518 44385,0.8,1.1,233.4,3,15,--.--,--.--,--.--,--.--,--.--,--.--,50.21,--.--,--.--,56,0,2.7,3.2,3.9,0,0,0,--.--,--.--,--.--
2021-12-22 11:51:17.098,-0.6,-0.8,225,0.0,0.0,0.0,1.1,0.6,-0.0,1.6,42.5,14.6,00:01:09,10.2,0,--.--,29,--.--,21,0000:00:00,0,0,0,24.62,27.58,401,--.--,95,--.--,--:--:--,0,678.96,11:51:17,12/22/2021,--.--,--.--,--.--,--.--,--.--,--.--,--.--,--.--,--.--,--.--,--.--,--.--,0,0.000,0.000,0.000,0.000,0.000,0.000,0.000,0.000,0.000,0.000,0.000,0.000,false,false,false,false,false,false,false,false,false,false,false,false,--.--,--.--,--.--,--.--,--.--,--.--,--.--,--.--,11.2557461,75.8292884,43PEN 90518 44385,0.8,1.1,237.8,3,15,--.--,--.--,--.--,--.--,--.--,--.--,50.22,--.--,--.--,56,0,3.5,2.7,6.3,0,0,0,--.--,--.--,--.--
2021-12-22 11:51:18.088,0.4,-2.5,226,0.0,0.0,0.0,1.0,0.5,-0.1,1.5,42.4,14.6,00:01:10,10.7,0,--.--,29,--.--,22,0000:00:00,0,0,0,24.63,29.02,409,--.--,95,--.--,--:--:--,0,714.68,11:51:18,12/22/2021,--.--,--.--,--.--,--.--,--.--,--.--,--.--,--.--,--.--,--.--,--.--,--.--,0,0.000,0.000,0.000,0.000,0.000,0.000,0.000,0.000,0.000,0.000,0.000,0.000,false,false,false,false,false,false,false,false,false,false,false,false,--.--,--.--,--.--,--.--,--.--,--.--,--.--,--.--,11.2557420,75.8292827,43PEN 90517 44385,0.8,1.1,230.3,4,15,--.--,--.--,--.--,--.--,--.--,--.--,50.24,--.--,--.--,56,0,3.3,2.1,5.6,0,0,0,--.--,--.--,--.--
2021-12-22 11:51:19.086,-0.2,2.7,225,0.0,0.0,0.0,0.9,0.5,0.0,1.5,42.4,16.6,00:01:11,11.2,0,--.--,30,--.--,20,0000:00:00,0,0,0,24.61,27.04,417,--.--,95,--.--,--:--:--,0,665.35,11:51:19,12/22/2021,--.--,--.--,--.--,--.--,--.--,--.--,--.--,--.--,--.--,--.--,--.--,--.--,0,0.000,0.000,0.000,0.000,0.000,0.000,0.000,0.000,0.000,0.000,0.000,0.000,false,false,false,false,false,false,false,false,false,false,false,false,--.--,--.--,--.--,--.--,--.--,--.--,--.--,--.--,11.2557381,75.8292793,43PEN 90517 44384,0.8,1.1,220.8,4,15,--.--,--.--,--.--,--.--,--.--,--.--,50.26,--.--,--.--,56,0,2.8,2.3,5.2,0,0,0,--.--,--.--,--.--
2021-12-22 11:51:20.099,1.2,0.1,229,0.0,0.0,0.0,0.8,0.2,-0.0,1.5,42.4,16.6,00:01:12,11.4,0,--.--,30,--.--,22,0000:00:00,0,0,0,24.54,27.71,424,--.--,95,--.--,--:--:--,0,680.06,11:51:20,12/22/2021,--.--,--.--,--.--,--.--,--.--,--.--,--.--,--.--,--.--,--.--,--.--,--.--,0,0.000,0.000,0.000,0.000,0.000,0.000,0.000,0.000,0.000,0.000,0.000,0.000,false,false,false,false,false,false,false,false,false,false,false,false,--.--,--.--,--.--,--.--,--.--,--.--,--.--,--.--,11.2557353,75.8292772,43PEN 90517 44384,0.8,1.1,227.7,4,15,--.--,--.--,--.--,--.--,--.--,--.--,50.27,--.--,--.--,56,0,2.8,2.6,4.0,0,0,0,--.--,--.--,--.--
2021-12-22 11:51:21.094,0.9,-2.6,227,0.0,0.0,0.0,0.8,0.2,-0.0,1.5,42.4,16.6,00:01:13,11.2,0,--.--,30,--.--,22,0000:00:00,0,0,0,24.59,28.84,435,--.--,95,--.--,--:--:--,0,709.20,11:51:21,12/22/2021,--.--,--.--,--.--,--.--,--.--,--.--,--.--,--.--,--.--,--.--,--.--,--.--,0,0.000,0.000,0.000,0.000,0.000,0.000,0.000,0.000,0.000,0.000,0.000,0.000,false,false,false,false,false,false,false,false,false,false,false,false,--.--,--.--,--.--,--.--,--.--,--.--,--.--,--.--,11.2557361,75.8292787,43PEN 90517 44384,0.8,1.1,227.7,4,15,--.--,--.--,--.--,--.--,--.--,--.--,50.29,--.--,--.--,56,0,2.8,1.3,5.3,0,0,0,--.--,--.--,--.--
2021-12-22 11:51:22.104,0.1,-1.9,227,0.0,0.0,0.0,0.9,0.1,-0.1,1.6,42.5,16.6,00:01:14,11.2,0,--.--,30,--.--,21,0000:00:00,0,0,0,24.55,27.36,443,--.--,95,--.--,--:--:--,0,671.72,11:51:22,12/22/2021,--.--,--.--,--.--,--.--,--.--,--.--,--.--,--.--,--.--,--.--,--.--,--.--,0,0.000,0.000,0.000,0.000,0.000,0.000,0.000,0.000,0.000,0.000,0.000,0.000,false,false,false,false,false,false,false,false,false,false,false,false,--.--,--.--,--.--,--.--,--.--,--.--,--.--,--.--,11.2557369,75.8292790,43PEN 90517 44384,0.8,1.1,227.7,4,15,--.--,--.--,--.--,--.--,--.--,--.--,50.30,--.--,--.--,56,0,2.3,3.9,3.1,0,0,0,--.--,--.--,--.--
2021-12-22 11:51:23.115,-0.4,-0.3,228,0.0,0.0,0.0,0.8,0.1,-0.1,1.6,42.5,16.6,00:01:15,11.3,0,--.--,31,--.--,21,0000:00:00,0,0,0,24.61,28.63,448,--.--,95,--.--,--:--:--,0,704.50,11:51:23,12/22/2021,--.--,--.--,--.--,--.--,--.--,--.--,--.--,--.--,--.--,--.--,--.--,--.--,0,0.000,0.000,0.000,0.000,0.000,0.000,0.000,0.000,0.000,0.000,0.000,0.000,false,false,false,false,false,false,false,false,false,false,false,false,--.--,--.--,--.--,--.--,--.--,--.--,--.--,--.--,11.2557371,75.8292777,43PEN 90517 44384,0.8,1.1,227.7,4,15,--.--,--.--,--.--,--.--,--.--,--.--,50.32,--.--,--.--,56,0,2.7,3.7,5.1,0,0,0,--.--,--.--,--.--
2021-12-22 11:51:24.108,0.4,-0.8,228,0.0,0.0,0.0,0.8,0.1,-0.1,1.6,42.5,16.6,00:01:16,11.4,0,--.--,31,--.--,22,0000:00:00,0,0,0,24.58,28.91,459,--.--,95,--.--,--:--:--,0,710.61,11:51:24,12/22/2021,--.--,--.--,--.--,--.--,--.--,--.--,--.--,--.--,--.--,--.--,--.--,--.--,0,0.000,0.000,0.000,0.000,0.000,0.000,0.000,0.000,0.000,0.000,0.000,0.000,false,false,false,false,false,false,false,false,false,false,false,false,--.--,--.--,--.--,--.--,--.--,--.--,--.--,--.--,11.2557368,75.8292769,43PEN 90517 44384,0.8,1.1,227.7,4,15,--.--,--.--,--.--,--.--,--.--,--.--,50.34,--.--,--.--,56,0,3.2,3.1,5.9,0,0,0,--.--,--.--,--.--
2021-12-22 11:51:25.113,-0.7,-1.2,226,0.0,0.0,0.0,0.7,0.0,-0.1,1.6,42.5,16.6,00:01:17,11.4,0,--.--,31,--.--,22,0000:00:00,0,0,0,24.56,27.30,463,--.--,95,--.--,--:--:--,0,670.46,11:51:25,12/22/2021,--.--,--.--,--.--,--.--,--.--,--.--,--.--,--.--,--.--,--.--,--.--,--.--,0,0.000,0.000,0.000,0.000,0.000,0.000,0.000,0.000,0.000,0.000,0.000,0.000,false,false,false,false,false,false,false,false,false,false,false,false,--.--,--.--,--.--,--.--,--.--,--.--,--.--,--.--,11.2557369,75.8292767,43PEN 90517 44384,0.8,1.1,227.7,4,15,--.--,--.--,--.--,--.--,--.--,--.--,50.36,--.--,--.--,56,0,2.2,4.3,3.9,0,0,0,--.--,--.--,--.--
2021-12-22 11:51:26.107,0.1,-1.3,228,0.0,0.0,0.0,0.7,0.0,-0.1,1.6,42.5,16.6,00:01:18,11.4,0,--.--,30,--.--,21,0000:00:00,0,0,0,24.59,28.26,471,--.--,95,--.--,--:--:--,0,695.03,11:51:26,12/22/2021,--.--,--.--,--.--,--.--,--.--,--.--,--.--,--.--,--.--,--.--,--.--,--.--,0,0.000,0.000,0.000,0.000,0.000,0.000,0.000,0.000,0.000,0.000,0.000,0.000,false,false,false,false,false,false,false,false,false,false,false,false,--.--,--.--,--.--,--.--,--.--,--.--,--.--,--.--,11.2557368,75.8292769,43PEN 90517 44384,0.8,1.1,227.7,4,15,--.--,--.--,--.--,--.--,--.--,--.--,50.37,--.--,--.--,56,0,3.9,1.8,8.3,0,0,0,--.--,--.--,--.--
2021-12-22 11:51:27.110,-0.0,-1.6,228,0.0,0.0,0.0,0.8,0.0,-0.1,1.6,42.5,16.6,00:01:19,11.4,0,--.--,30,--.--,22,0000:00:00,0,0,0,24.55,28.68,479,--.--,95,--.--,--:--:--,0,704.04,11:51:27,12/22/2021,--.--,--.--,--.--,--.--,--.--,--.--,--.--,--.--,--.--,--.--,--.--,--.--,0,0.000,0.000,0.000,0.000,0.000,0.000,0.000,0.000,0.000,0.000,0.000,0.000,false,false,false,false,false,false,false,false,false,false,false,false,--.--,--.--,--.--,--.--,--.--,--.--,--.--,--.--,11.2557365,75.8292770,43PEN 90517 44384,0.8,1.1,227.7,4,15,--.--,--.--,--.--,--.--,--.--,--.--,50.39,--.--,--.--,56,0,2.4,4.3,4.2,0,0,0,--.--,--.--,--.--
2021-12-22 11:51:28.122,-0.4,-1.2,227,0.0,0.0,0.0,0.8,0.1,-0.0,1.6,42.5,16.6,00:01:20,11.4,0,--.--,31,--.--,22,0000:00:00,0,0,0,24.52,27.32,487,--.--,95,--.--,--:--:--,0,669.75,11:51:28,12/22/2021,--.--,--.--,--.--,--.--,--.--,--.--,--.--,--.--,--.--,--.--,--.--,--.--,0,0.000,0.000,0.000,0.000,0.000,0.000,0.000,0.000,0.000,0.000,0.000,0.000,false,false,false,false,false,false,false,false,false,false,false,false,--.--,--.--,--.--,--.--,--.--,--.--,--.--,--.--,11.2557365,75.8292772,43PEN 90517 44384,0.8,1.1,227.7,4,15,--.--,--.--,--.--,--.--,--.--,--.--,50.40,--.--,--.--,56,0,2.4,4.4,4.6,0,0,0,--.--,--.--,--.--
2021-12-22 11:51:29.132,0.2,-1.2,226,0.0,0.0,0.0,0.7,0.1,-0.1,1.6,42.5,16.6,00:01:21,11.4,0,--.--,30,--.--,22,0000:00:00,0,0,0,24.58,28.45,495,--.--,95,--.--,--:--:--,0,699.39,11:51:29,12/22/2021,--.--,--.--,--.--,--.--,--.--,--.--,--.--,--.--,--.--,--.--,--.--,--.--,0,0.000,0.000,0.000,0.000,0.000,0.000,0.000,0.000,0.000,0.000,0.000,0.000,false,false,false,false,false,false,false,false,false,false,false,false,--.--,--.--,--.--,--.--,--.--,--.--,--.--,--.--,11.2557366,75.8292775,43PEN 90517 44384,0.8,1.1,227.7,4,15,--.--,--.--,--.--,--.--,--.--,--.--,50.43,--.--,--.--,56,0,1.8,4.5,3.1,0,0,0,--.--,--.--,--.--
2021-12-22 11:51:30.161,-0.4,-0.8,228,0.0,0.0,0.0,0.8,0.1,-0.0,1.5,42.4,16.6,00:01:22,11.4,0,--.--,30,--.--,22,0000:00:00,0,0,0,24.47,28.60,506,--.--,94,--.--,--:--:--,0,699.78,11:51:30,12/22/2021,--.--,--.--,--.--,--.--,--.--,--.--,--.--,--.--,--.--,--.--,--.--,--.--,0,0.000,0.000,0.000,0.000,0.000,0.000,0.000,0.000,0.000,0.000,0.000,0.000,false,false,false,false,false,false,false,false,false,false,false,false,--.--,--.--,--.--,--.--,--.--,--.--,--.--,--.--,11.2557367,75.8292775,43PEN 90517 44384,0.8,1.1,227.7,4,15,--.--,--.--,--.--,--.--,--.--,--.--,50.45,--.--,--.--,56,0,3.7,3.3,6.3,0,0,0,--.--,--.--,--.--
2021-12-22 11:51:31.168,0.0,-0.9,227,0.0,0.0,0.0,0.8,0.0,-0.0,1.5,42.4,16.6,00:01:23,11.4,0,--.--,31,--.--,22,0000:00:00,0,0,0,24.52,29.25,514,--.--,94,--.--,--:--:--,0,717.33,11:51:31,12/22/2021,--.--,--.--,--.--,--.--,--.--,--.--,--.--,--.--,--.--,--.--,--.--,--.--,0,0.000,0.000,0.000,0.000,0.000,0.000,0.000,0.000,0.000,0.000,0.000,0.000,false,false,false,false,false,false,false,false,false,false,false,false,--.--,--.--,--.--,--.--,--.--,--.--,--.--,--.--,11.2557364,75.8292768,43PEN 90517 44384,0.8,1.1,227.7,4,15,--.--,--.--,--.--,--.--,--.--,--.--,50.47,--.--,--.--,56,0,3.3,2.3,6.7,0,0,0,--.--,--.--,--.--
2021-12-22 11:51:32.162,-0.1,-1.5,226,0.0,0.0,0.0,0.8,0.1,-0.0,1.5,42.4,16.6,00:01:24,11.4,0,--.--,31,--.--,22,0000:00:00,0,0,0,24.52,29.71,522,--.--,94,--.--,--:--:--,0,728.52,11:51:32,12/22/2021,--.--,--.--,--.--,--.--,--.--,--.--,--.--,--.--,--.--,--.--,--.--,--.--,0,0.000,0.000,0.000,0.000,0.000,0.000,0.000,0.000,0.000,0.000,0.000,0.000,false,false,false,false,false,false,false,false,false,false,false,false,--.--,--.--,--.--,--.--,--.--,--.--,--.--,--.--,11.2557361,75.8292766,43PEN 90517 44384,0.8,1.1,227.7,4,15,--.--,--.--,--.--,--.--,--.--,--.--,50.49,--.--,--.--,56,0,3.3,2.5,6.1,0,0,0,--.--,--.--,--.--
2021-12-22 11:51:33.169,0.3,-1.1,228,0.0,0.0,0.0,0.8,0.0,-0.0,1.5,42.4,16.6,00:01:25,11.4,0,--.--,30,--.--,22,0000:00:00,0,0,0,24.51,28.49,527,--.--,94,--.--,--:--:--,0,698.32,11:51:33,12/22/2021,--.--,--.--,--.--,--.--,--.--,--.--,--.--,--.--,--.--,--.--,--.--,--.--,0,0.000,0.000,0.000,0.000,0.000,0.000,0.000,0.000,0.000,0.000,0.000,0.000,false,false,false,false,false,false,false,false,false,false,false,false,--.--,--.--,--.--,--.--,--.--,--.--,--.--,--.--,11.2557367,75.8292770,43PEN 90517 44384,0.8,1.1,227.7,4,15,--.--,--.--,--.--,--.--,--.--,--.--,50.51,--.--,--.--,56,0,2.8,2.7,5.1,0,0,0,--.--,--.--,--.--
2021-12-22 11:51:34.190,0.4,-1.1,227,0.0,0.0,0.0,0.8,0.0,-0.1,1.6,42.5,16.6,00:01:26,11.4,0,--.--,30,--.--,22,0000:00:00,0,0,0,24.49,28.33,538,--.--,94,--.--,--:--:--,0,693.75,11:51:34,12/22/2021,--.--,--.--,--.--,--.--,--.--,--.--,--.--,--.--,--.--,--.--,--.--,--.--,0,0.000,0.000,0.000,0.000,0.000,0.000,0.000,0.000,0.000,0.000,0.000,0.000,false,false,false,false,false,false,false,false,false,false,false,false,--.--,--.--,--.--,--.--,--.--,--.--,--.--,--.--,11.2557367,75.8292772,43PEN 90517 44384,0.8,1.1,227.7,4,15,--.--,--.--,--.--,--.--,--.--,--.--,50.53,--.--,--.--,56,0,3.4,2.3,6.3,0,0,0,--.--,--.--,--.--
2021-12-22 11:51:35.170,0.8,-1.4,227,0.0,0.0,0.0,0.8,0.0,-0.1,1.6,42.5,16.6,00:01:27,11.4,0,--.--,30,--.--,22,0000:00:00,0,0,0,24.48,27.83,543,--.--,94,--.--,--:--:--,0,681.17,11:51:35,12/22/2021,--.--,--.--,--.--,--.--,--.--,--.--,--.--,--.--,--.--,--.--,--.--,--.--,0,0.000,0.000,0.000,0.000,0.000,0.000,0.000,0.000,0.000,0.000,0.000,0.000,false,false,false,false,false,false,false,false,false,false,false,false,--.--,--.--,--.--,--.--,--.--,--.--,--.--,--.--,11.2557364,75.8292778,43PEN 90517 44384,0.8,1.1,227.7,4,14,--.--,--.--,--.--,--.--,--.--,--.--,50.55,--.--,--.--,56,0,2.7,2.7,5.0,0,0,0,--.--,--.--,--.--
2021-12-22 11:51:36.166,0.2,-1.7,230,0.0,0.0,0.0,0.8,0.0,-0.1,1.6,42.5,16.6,00:01:28,11.4,0,--.--,30,--.--,22,0000:00:00,0,0,0,24.57,28.84,554,--.--,94,--.--,--:--:--,0,708.54,11:51:36,12/22/2021,--.--,--.--,--.--,--.--,--.--,--.--,--.--,--.--,--.--,--.--,--.--,--.--,0,0.000,0.000,0.000,0.000,0.000,0.000,0.000,0.000,0.000,0.000,0.000,0.000,false,false,false,false,false,false,false,false,false,false,false,false,--.--,--.--,--.--,--.--,--.--,--.--,--.--,--.--,11.2557364,75.8292775,43PEN 90517 44384,0.8,1.1,227.7,4,15,--.--,--.--,--.--,--.--,--.--,--.--,50.57,--.--,--.--,56,0,1.9,2.6,2.3,0,0,0,--.--,--.--,--.--
2021-12-22 11:51:37.166,0.0,-1.1,228,0.0,0.0,0.0,0.8,0.1,-0.0,1.5,42.4,16.6,00:01:29,11.4,0,--.--,31,--.--,22,0000:00:00,0,0,0,24.47,29.70,559,--.--,94,--.--,--:--:--,0,726.70,11:51:37,12/22/2021,--.--,--.--,--.--,--.--,--.--,--.--,--.--,--.--,--.--,--.--,--.--,--.--,0,0.000,0.000,0.000,0.000,0.000,0.000,0.000,0.000,0.000,0.000,0.000,0.000,false,false,false,false,false,false,false,false,false,false,false,false,--.--,--.--,--.--,--.--,--.--,--.--,--.--,--.--,11.2557369,75.8292773,43PEN 90517 44384,0.8,1.1,227.7,4,15,--.--,--.--,--.--,--.--,--.--,--.--,50.59,--.--,--.--,56,0,2.5,2.1,3.5,0,0,0,--.--,--.--,--.--
2021-12-22 11:51:38.177,-0.0,-0.8,226,0.0,0.0,0.0,0.8,0.1,-0.0,1.5,42.4,16.6,00:01:30,11.4,0,--.--,31,--.--,22,0000:00:00,0,0,0,24.49,29.49,567,--.--,94,--.--,--:--:--,0,722.12,11:51:38,12/22/2021,--.--,--.--,--.--,--.--,--.--,--.--,--.--,--.--,--.--,--.--,--.--,--.--,0,0.000,0.000,0.000,0.000,0.000,0.000,0.000,0.000,0.000,0.000,0.000,0.000,false,false,false,false,false,false,false,false,false,false,false,false,--.--,--.--,--.--,--.--,--.--,--.--,--.--,--.--,11.2557370,75.8292766,43PEN 90517 44384,0.8,1.1,227.7,4,15,--.--,--.--,--.--,--.--,--.--,--.--,50.61,--.--,--.--,56,0,1.9,2.4,2.9,0,0,0,--.--,--.--,--.--
2021-12-22 11:51:39.169,0.6,0.2,222,0.0,0.0,0.0,0.7,0.1,-0.1,1.6,42.5,16.6,00:01:31,11.5,0,--.--,31,--.--,22,0000:00:00,0,0,0,24.51,26.98,578,--.--,94,--.--,--:--:--,0,661.31,11:51:39,12/22/2021,--.--,--.--,--.--,--.--,--.--,--.--,--.--,--.--,--.--,--.--,--.--,--.--,0,0.000,0.000,0.000,0.000,0.000,0.000,0.000,0.000,0.000,0.000,0.000,0.000,false,false,false,false,false,false,false,false,false,false,false,false,--.--,--.--,--.--,--.--,--.--,--.--,--.--,--.--,11.2557361,75.8292765,43PEN 90517 44384,0.8,1.1,227.7,4,15,--.--,--.--,--.--,--.--,--.--,--.--,50.63,--.--,--.--,56,0,2.3,2.7,4.6,0,0,0,--.--,--.--,--.--
2021-12-22 11:51:40.167,-0.6,-0.6,223,0.0,0.0,0.0,0.7,0.1,-0.0,1.5,42.4,16.6,00:01:32,11.5,0,--.--,31,--.--,21,0000:00:00,0,0,0,24.47,26.66,582,--.--,94,--.--,--:--:--,0,652.48,11:51:40,12/22/2021,--.--,--.--,--.--,--.--,--.--,--.--,--.--,--.--,--.--,--.--,--.--,--.--,0,0.000,0.000,0.000,0.000,0.000,0.000,0.000,0.000,0.000,0.000,0.000,0.000,false,false,false,false,false,false,false,false,false,false,false,false,--.--,--.--,--.--,--.--,--.--,--.--,--.--,--.--,11.2557349,75.8292770,43PEN 90517 44384,0.8,1.1,227.7,4,15,--.--,--.--,--.--,--.--,--.--,--.--,50.65,--.--,--.--,56,0,1.6,2.5,3.7,0,0,0,--.--,--.--,--.--
2021-12-22 11:51:41.169,1.1,-1.6,228,0.0,0.0,0.0,0.7,0.2,-0.0,1.5,42.4,16.6,00:01:33,11.4,0,--.--,30,--.--,22,0000:00:00,0,0,0,24.46,29.65,590,--.--,94,--.--,--:--:--,0,725.24,11:51:41,12/22/2021,--.--,--.--,--.--,--.--,--.--,--.--,--.--,--.--,--.--,--.--,--.--,--.--,0,0.000,0.000,0.000,0.000,0.000,0.000,0.000,0.000,0.000,0.000,0.000,0.000,false,false,false,false,false,false,false,false,false,false,false,false,--.--,--.--,--.--,--.--,--.--,--.--,--.--,--.--,11.2557349,75.8292785,43PEN 90517 44384,0.8,1.1,227.7,4,15,--.--,--.--,--.--,--.--,--.--,--.--,50.68,--.--,--.--,56,0,2.2,3.3,4.5,0,0,0,--.--,--.--,--.--
